{"data": [{"businessID": "nI1UYDCYUTt23TpGxqnLKg", "name": "Buddakan", "cuisine": ["chinese", "bars", "asianfusion"], "location": "75 9th Ave, New York, NY 10011", "zip_code": "10011", "coordinates": {"latitude": 40.7422762672197, "longitude": -74.0048000961542}, "phone": "(212) 989-6699", "review_count": 3865, "rating": 4.0}, {"businessID": "0CjK3esfpFcxIopebzjFxA", "name": "Joe's Shanghai", "cuisine": ["shanghainese", "seafood", "chinese"], "location": "9 Pell St, New York, NY 10013", "zip_code": "10013", "coordinates": {"latitude": 40.7146691442891, "longitude": -73.9977602206654}, "phone": "(212) 233-8888", "review_count": 5949, "rating": 4.0}, {"businessID": "X8ZS-dgiMIJvhwf9SaDnjw", "name": "Wah Fung No 1 Fast Food", "cuisine": ["chinese", "hotdogs", "noodles"], "location": "79 Chrystie St, New York, NY 10002", "zip_code": "10002", "coordinates": {"latitude": 40.71735, "longitude": -73.99457}, "phone": "(212) 925-5175", "review_count": 1323, "rating": 4.5}, {"businessID": "IhSVn0TaX8xXb3wcQ-fgcA", "name": "Vanessa's Dumpling House", "cuisine": ["chinese"], "location": "118A Eldridge St, New York, NY 10002", "zip_code": "10002", "coordinates": {"latitude": 40.71839, "longitude": -73.9917399}, "phone": "(212) 625-8008", "review_count": 2561, "rating": 4.0}, {"businessID": "R26zweQ8-xoZS7iHkXQOvw", "name": "Shanghai 21", "cuisine": ["shanghainese", "chinese"], "location": "21 Mott St, New York, NY 10013", "zip_code": "10013", "coordinates": {"latitude": 40.7144199, "longitude": -73.99889}, "phone": "(212) 766-6311", "review_count": 1593, "rating": 4.0}, {"businessID": "Gd3_3mxOvj2xYiqysV8rbQ", "name": "Xi'an Famous Foods", "cuisine": ["chinese", "noodles", "burgers"], "location": "81 St Marks Pl, New York, NY 10003", "zip_code": "10003", "coordinates": {"latitude": 40.72782, "longitude": -73.98551}, "phone": "(212) 786-2068", "review_count": 1579, "rating": 4.0}, {"businessID": "Lbs8QBRN1U7IYBo5Mcv-RQ", "name": "88 Lan Zhou Handmade Noodle", "cuisine": ["chinese", "noodles"], "location": "40 Bowery St, New York, NY 10013", "zip_code": "10013", "coordinates": {"latitude": 40.7155, "longitude": -73.99675}, "phone": "(646) 683-0939", "review_count": 1750, "rating": 4.0}, {"businessID": "Xf6e3HaP0AgMBxY7dEDkOA", "name": "99 Favor Taste", "cuisine": ["chinese", "hotpot", "bbq"], "location": "285 Grand St, New York, NY 10002", "zip_code": "10002", "coordinates": {"latitude": 40.7176199, "longitude": -73.99249}, "phone": "(646) 682-9162", "review_count": 1746, "rating": 4.0}, {"businessID": "lynQoI3w_pzYfHGeuUU-Qg", "name": "Shu Jiao Fu Zhou Cuisine Restaurant", "cuisine": ["chinese"], "location": "118 Eldridge St, New York, NY 10002", "zip_code": "10002", "coordinates": {"latitude": 40.7184290357839, "longitude": -73.9916928979573}, "phone": "(212) 625-2532", "review_count": 770, "rating": 4.5}, {"businessID": "M-odQWSEfsR2mVEw7nKG-g", "name": "Nyonya", "cuisine": ["asianfusion", "malaysian", "chinese"], "location": "199 Grand St, New York, NY 10013", "zip_code": "10013", "coordinates": {"latitude": 40.7190148, "longitude": -73.9968228}, "phone": "(212) 334-3669", "review_count": 2028, "rating": 4.0}, {"businessID": "HScFap2SwbUlfC-QXVkxFA", "name": "Xi'an Famous Foods", "cuisine": ["chinese", "burgers", "noodles"], "location": "24 W 45th St, New York, NY 10036", "zip_code": "10036", "coordinates": {"latitude": 40.75606, "longitude": -73.9808}, "phone": "(212) 786-2068", "review_count": 1606, "rating": 4.0}, {"businessID": "97q5nUQTuBo_h00XCxna2A", "name": "Tasty Hand-Pulled Noodles", "cuisine": ["chinese", "noodles"], "location": "1 Doyers St, New York, NY 10013", "zip_code": "10013", "coordinates": {"latitude": 40.7142, "longitude": -73.99787}, "phone": "(212) 791-1817", "review_count": 1559, "rating": 4.0}, {"businessID": "oe8GEFE4QLFAKt87y7zcgA", "name": "Very Fresh Noodles", "cuisine": ["taiwanese", "chinese", "noodles"], "location": "425 W 15th St, New York, NY 10011", "zip_code": "10011", "coordinates": {"latitude": 40.7423387008486, "longitude": -74.00625}, "phone": "", "review_count": 880, "rating": 4.5}, {"businessID": "x_t-FtDa5HVgc-wecp0HBg", "name": "Shanghai Dumpling", "cuisine": ["shanghainese", "dimsum", "chinese"], "location": "100 Mott St, New York, NY 10013", "zip_code": "10013", "coordinates": {"latitude": 40.71726, "longitude": -73.99721}, "phone": "(212) 966-3988", "review_count": 2110, "rating": 3.5}, {"businessID": "B3i4zs5wquFu1UZyzYJ-bQ", "name": "BaoHaus", "cuisine": ["chinese", "taiwanese"], "location": "238 E 14th St, New York, NY 10003", "zip_code": "10003", "coordinates": {"latitude": 40.7324690923782, "longitude": -73.9857136011124}, "phone": "(646) 669-8889", "review_count": 1918, "rating": 3.5}, {"businessID": "xq0cX_DgxiJMXwhmEl9kUA", "name": "Caf\u00e9 China", "cuisine": ["szechuan", "chinese"], "location": "13 E 37th St, New York, NY 10016", "zip_code": "10016", "coordinates": {"latitude": 40.7499225208569, "longitude": -73.9819464127197}, "phone": "(212) 213-2810", "review_count": 1554, "rating": 4.0}, {"businessID": "bVkjBJlAIwKAj9Aw1KVWjA", "name": "Dim Sum Palace", "cuisine": ["dimsum", "cantonese", "chinese"], "location": "334 W 46th St, New York, NY 10036", "zip_code": "10036", "coordinates": {"latitude": 40.76015, "longitude": -73.9893699}, "phone": "(646) 861-1910", "review_count": 1128, "rating": 4.0}, {"businessID": "LpVbI-E9C-CSp7WhU5h2Iw", "name": "Fishmarket Restaurant", "cuisine": ["seafood", "chinese", "asianfusion"], "location": "111 South St, New York, NY 10038", "zip_code": "10038", "coordinates": {"latitude": 40.70717, "longitude": -74.00192}, "phone": "(917) 363-8101", "review_count": 536, "rating": 4.5}, {"businessID": "wfhMIiMh2A2psCGONOVSlg", "name": "Han Dynasty", "cuisine": ["szechuan", "bars", "chinese"], "location": "90 3rd Ave, New York, NY 10003", "zip_code": "10003", "coordinates": {"latitude": 40.732072, "longitude": -73.988074}, "phone": "(212) 390-8685", "review_count": 1188, "rating": 4.0}, {"businessID": "bnDfFdiCcPzhuNWUJORvLQ", "name": "Noodle Village", "cuisine": ["chinese", "noodles"], "location": "13 Mott St, New York, NY 10013", "zip_code": "10013", "coordinates": {"latitude": 40.714167, "longitude": -73.998803}, "phone": "(212) 233-0788", "review_count": 1028, "rating": 4.0}, {"businessID": "_usWsAYSKKV2q8xw-3ajrA", "name": "Nom Wah Tea Parlor", "cuisine": ["dimsum", "chinese"], "location": "13 Doyers St, New York, NY 10013", "zip_code": "10013", "coordinates": {"latitude": 40.714490521829, "longitude": -73.998153857324}, "phone": "(212) 962-6047", "review_count": 1922, "rating": 3.5}, {"businessID": "tguMh2GgOcU9fu6WN3dqpw", "name": "The Original Buddha Bodai \u4f5b\u83e9\u63d0 Kosher Vegetarian Restaurant", "cuisine": ["chinese", "kosher", "vegan"], "location": "5 Mott St, New York, NY 10013", "zip_code": "10013", "coordinates": {"latitude": 40.7138543, "longitude": -73.9989484}, "phone": "(212) 566-8388", "review_count": 948, "rating": 4.0}, {"businessID": "H1jops1lmuhrq9lP7lEGJQ", "name": "Flor De Mayo", "cuisine": ["chinese", "cuban", "peruvian"], "location": "484 Amsterdam Ave, New York, NY 10024", "zip_code": "10024", "coordinates": {"latitude": 40.78609, "longitude": -73.97658}, "phone": "(212) 787-3388", "review_count": 1152, "rating": 4.0}, {"businessID": "L37A2JWXfwR_PgKColA8xA", "name": "Big Wong", "cuisine": ["chinese", "seafood"], "location": "67 Mott St, New York, NY 10013", "zip_code": "10013", "coordinates": {"latitude": 40.71624, "longitude": -73.99842}, "phone": "(212) 964-0540", "review_count": 1385, "rating": 3.5}, {"businessID": "FH978pIP1TLRuPAH-MbWIQ", "name": "Jing Fong Restaurant", "cuisine": ["dimsum", "cantonese", "chinese"], "location": "20 Elizabeth St, New York, NY 10013", "zip_code": "10013", "coordinates": {"latitude": 40.7159552385198, "longitude": -73.9971831076206}, "phone": "(212) 964-5256", "review_count": 2278, "rating": 3.5}, {"businessID": "pBNMZp_tKCAfRNx7-ybcHQ", "name": "Calle Dao - Chelsea", "cuisine": ["cuban", "chinese", "asianfusion"], "location": "461 W 23rd St, New York, NY 10011", "zip_code": "10011", "coordinates": {"latitude": 40.7476515, "longitude": -74.0037312}, "phone": "(212) 414-4104", "review_count": 500, "rating": 4.5}, {"businessID": "fPW_GBZsnBNsIzK62sCHBg", "name": "Xi'an Famous Foods", "cuisine": ["chinese", "burgers", "noodles"], "location": "45 Bayard St, New York, NY 10013", "zip_code": "10013", "coordinates": {"latitude": 40.715082, "longitude": -73.997342}, "phone": "", "review_count": 970, "rating": 4.0}, {"businessID": "R7EGjHWw0tNheY6-ahH8fQ", "name": "Tuome", "cuisine": ["american", "chinese"], "location": "536 E 5th St, New York, NY 10009", "zip_code": "10009", "coordinates": {"latitude": 40.72412482724, "longitude": -73.9828906263924}, "phone": "(646) 833-7811", "review_count": 464, "rating": 4.5}, {"businessID": "zubN8Ve-RyoljRZV4NRxEQ", "name": "Wo Hop", "cuisine": ["chinese"], "location": "17 Mott St, New York, NY 10013", "zip_code": "10013", "coordinates": {"latitude": 40.7142239034582, "longitude": -73.9988691693115}, "phone": "(212) 962-8617", "review_count": 1386, "rating": 3.5}, {"businessID": "0GftSP2dRwEzujkv2VKIgA", "name": "Wok Wok", "cuisine": ["chinese", "malaysian", "thai"], "location": "11 Mott St, New York, NY 10013", "zip_code": "10013", "coordinates": {"latitude": 40.71406, "longitude": -73.99883}, "phone": "(917) 388-3627", "review_count": 872, "rating": 4.0}, {"businessID": "d_TC6Om2EBTzHVm_lCgNtg", "name": "Great NY Noodle Town", "cuisine": ["cantonese", "noodles", "chinese"], "location": "28 Bowery, New York, NY 10013", "zip_code": "10013", "coordinates": {"latitude": 40.7150363828814, "longitude": -73.9971172437072}, "phone": "(212) 349-0923", "review_count": 1261, "rating": 3.5}, {"businessID": "Va_mnsEvBghHXvc7uZIWJQ", "name": "Spice Symphony", "cuisine": ["indian", "chinese", "salad"], "location": "182 Lexington Ave, New York, NY 10016", "zip_code": "10016", "coordinates": {"latitude": 40.744722, "longitude": -73.981202}, "phone": "(212) 545-7742", "review_count": 578, "rating": 4.0}, {"businessID": "P2bxlKAmRWZIpHdJ_JT3fg", "name": "East Harbor Seafood Palace", "cuisine": ["dimsum", "cantonese", "seafood", "chinese"], "location": "714 65th St, Brooklyn, NY 11220", "zip_code": "11220", "coordinates": {"latitude": 40.633533, "longitude": -74.014343}, "phone": "(718) 765-0098", "review_count": 658, "rating": 4.0}, {"businessID": "8ig0yf0003DAp4YOGTlbVg", "name": "Spicy Village", "cuisine": ["chinese"], "location": "68 Forsyth St, Ste B, New York, NY 10002", "zip_code": "10002", "coordinates": {"latitude": 40.71695, "longitude": -73.99327}, "phone": "(212) 625-8299", "review_count": 624, "rating": 4.0}, {"businessID": "0vg2Z-HPwkyVVX613j2ysg", "name": "Peng's Noodle Folk", "cuisine": ["chinese", "noodles", "ramen"], "location": "1659 1st Ave, New York, NY 10028", "zip_code": "10028", "coordinates": {"latitude": 40.77726, "longitude": -73.94932}, "phone": "(212) 348-2878", "review_count": 406, "rating": 4.5}, {"businessID": "bT4CDzyhV-frXV6ijvXnvw", "name": "Super Taste", "cuisine": ["chinese", "noodles"], "location": "26 Eldridge St, New York, NY 10002", "zip_code": "10002", "coordinates": {"latitude": 40.71513, "longitude": -73.99341}, "phone": "(646) 283-0999", "review_count": 533, "rating": 4.0}, {"businessID": "SyvC0s3y0ZrtnLbwnvw7tw", "name": "Tim Ho Wan", "cuisine": ["dimsum", "cantonese", "chinese"], "location": "85 4th Ave, New York, NY 10003", "zip_code": "10003", "coordinates": {"latitude": 40.73168, "longitude": -73.99007}, "phone": "(212) 228-2800", "review_count": 1600, "rating": 3.5}, {"businessID": "3Rah-cvFk79duFQ83voQ5A", "name": "99 Favor Taste", "cuisine": ["hotpot", "bbq", "chinese"], "location": "37 St Marks Pl, New York, NY 10003", "zip_code": "10003", "coordinates": {"latitude": 40.728833, "longitude": -73.988094}, "phone": "(212) 256-0480", "review_count": 551, "rating": 4.0}, {"businessID": "kwqOmEwWJ0D9PyCdFGE3-g", "name": "Xian Famous Foods", "cuisine": ["chinese", "noodles", "burgers"], "location": "14 E 34th St, New York, NY 10016", "zip_code": "10016", "coordinates": {"latitude": 40.747844, "longitude": -73.983901}, "phone": "", "review_count": 711, "rating": 4.0}, {"businessID": "Kqb7MjTPNkjPMoFRd-rWpw", "name": "M\u00e1L\u00e0 Project", "cuisine": ["chinese"], "location": "122 1st Ave, New York, NY 10009", "zip_code": "10009", "coordinates": {"latitude": 40.72713, "longitude": -73.98542}, "phone": "(212) 353-8880", "review_count": 589, "rating": 4.0}, {"businessID": "neQM053ovAOrf1sVSAPI9w", "name": "Radiance Tea House and Books", "cuisine": ["asianfusion", "tea", "chinese"], "location": "158 W 55th St, New York, NY 10019", "zip_code": "10019", "coordinates": {"latitude": 40.7639799, "longitude": -73.98065}, "phone": "(212) 217-0442", "review_count": 837, "rating": 4.0}, {"businessID": "l44CFBTejwL0ElKmkH7xQQ", "name": "Decoy", "cuisine": ["chinese", "bars"], "location": "529 Hudson St, New York, NY 10014", "zip_code": "10014", "coordinates": {"latitude": 40.734196, "longitude": -74.006519}, "phone": "(212) 691-9700", "review_count": 410, "rating": 4.0}, {"businessID": "6zM0c7vvoddgza_qvKkATw", "name": "Golden Unicorn", "cuisine": ["dimsum", "cantonese", "chinese"], "location": "18 E Broadway, New York, NY 10002", "zip_code": "10002", "coordinates": {"latitude": 40.7136770496642, "longitude": -73.997163364418}, "phone": "(212) 941-0911", "review_count": 1725, "rating": 3.5}, {"businessID": "2UxAkvKkkWNwqZi9H0OzWw", "name": "Dian Kitchen", "cuisine": ["chinese", "noodles"], "location": "435 E 9th St, New York, NY 10009", "zip_code": "10009", "coordinates": {"latitude": 40.72772, "longitude": -73.98321}, "phone": "(646) 590-9898", "review_count": 180, "rating": 5.0}, {"businessID": "SNhDVaf_n7VDZcfry8mYdA", "name": "The Bao", "cuisine": ["chinese"], "location": "13 St Marks Pl, New York, NY 10003", "zip_code": "10003", "coordinates": {"latitude": 40.72939, "longitude": -73.9889199}, "phone": "(212) 388-9238", "review_count": 1045, "rating": 3.5}, {"businessID": "rYw5rQbWRX9buZHZbxqWdA", "name": "Congee Village", "cuisine": ["cantonese", "chinese"], "location": "100 Allen St, New York, NY 10002", "zip_code": "10002", "coordinates": {"latitude": 40.7187, "longitude": -73.99031}, "phone": "(212) 941-1818", "review_count": 1542, "rating": 3.5}, {"businessID": "A-ert0jDRBfku9ogyW_mEg", "name": "Spice Symphony", "cuisine": ["chinese", "indian", "breakfast_brunch"], "location": "150 E 50th St, New York, NY 10022", "zip_code": "10022", "coordinates": {"latitude": 40.7558937072754, "longitude": -73.9715347290039}, "phone": "(212) 300-4869", "review_count": 421, "rating": 4.5}, {"businessID": "0dDCDQz7DrKkSvu9h2hcQw", "name": "Chow House", "cuisine": ["chinese", "noodles", "soup"], "location": "181 Bleecker St, New York, NY 10012", "zip_code": "10012", "coordinates": {"latitude": 40.72915, "longitude": -74.00072}, "phone": "(212) 837-1021", "review_count": 318, "rating": 4.5}, {"businessID": "7ZQSMqWzvXMSetXnii2fBg", "name": "Excellent Dumpling House", "cuisine": ["dimsum", "shanghainese", "chinese"], "location": "165 W 23rd St, New York, NY 10011", "zip_code": "10011", "coordinates": {"latitude": 40.7440494396358, "longitude": -73.995028194335}, "phone": "(212) 989-8885", "review_count": 555, "rating": 4.0}, {"businessID": "scTDvJ2M2jDbb1ntVeIyxA", "name": "Hao Noodle and Tea By Madam Zhu's Kitchen", "cuisine": ["chinese", "noodles"], "location": "401 6th Ave, New York, NY 10014", "zip_code": "10014", "coordinates": {"latitude": 40.7334863190479, "longitude": -73.9998929006093}, "phone": "(212) 633-8900", "review_count": 665, "rating": 4.0}, {"businessID": "0k678lCWQyReNi0lARlOmw", "name": "China Blue", "cuisine": ["shanghainese", "dimsum", "chinese"], "location": "135 Watts St, New York, NY 10013", "zip_code": "10013", "coordinates": {"latitude": 40.724038, "longitude": -74.009958}, "phone": "(212) 431-0111", "review_count": 669, "rating": 4.0}, {"businessID": "BPErPpKSNluwcjbKRgze3w", "name": "Xi'an Famous Foods", "cuisine": ["chinese", "noodles", "burgers"], "location": "328 E 78th St, New York, NY 10075", "zip_code": "10075", "coordinates": {"latitude": 40.77197, "longitude": -73.95452}, "phone": "", "review_count": 489, "rating": 4.0}, {"businessID": "rEbwps11tIERRkwQrIXQog", "name": "Hakkasan", "cuisine": ["chinese"], "location": "311 W 43rd St, New York, NY 10036", "zip_code": "10036", "coordinates": {"latitude": 40.758619, "longitude": -73.989961}, "phone": "(212) 776-1818", "review_count": 886, "rating": 3.5}, {"businessID": "U74_3F7r3tMhd6dmTmDBxQ", "name": "Macao trading", "cuisine": ["asianfusion", "portuguese", "chinese"], "location": "311 Church St, New York, NY 10013", "zip_code": "10013", "coordinates": {"latitude": 40.719623, "longitude": -74.003904}, "phone": "(212) 431-8642", "review_count": 728, "rating": 4.0}, {"businessID": "m2_ZNFos5ugAwe8ft8eaEw", "name": "Eim Khao Mun Kai Elmhurst", "cuisine": ["thai", "hainan", "chinese"], "location": "81-32 Broadway, Elmhurst, NY 11373", "zip_code": "11373", "coordinates": {"latitude": 40.7429414097644, "longitude": -73.8832733356575}, "phone": "(718) 424-7156", "review_count": 389, "rating": 4.5}, {"businessID": "xH7mEjh4Rn6KdHjXYNoOjw", "name": "Yaso Tangbao", "cuisine": ["shanghainese", "chinese"], "location": "148 Lawrence St, Brooklyn, NY 11201", "zip_code": "11201", "coordinates": {"latitude": 40.6918206366101, "longitude": -73.9863992364001}, "phone": "(929) 337-7599", "review_count": 738, "rating": 3.5}, {"businessID": "EFihj7vsRRXiF5la-UURyw", "name": "Hop Kee", "cuisine": ["seafood", "cantonese", "chinese"], "location": "21 Mott St, New York, NY 10013", "zip_code": "10013", "coordinates": {"latitude": 40.714458, "longitude": -73.998889}, "phone": "(212) 964-8365", "review_count": 782, "rating": 3.5}, {"businessID": "isIFCDLE3VIDJcqhVy_klA", "name": "99 Favor Taste", "cuisine": ["chinese", "hotpot", "bbq"], "location": "732 61st St, Brooklyn, NY 11220", "zip_code": "11220", "coordinates": {"latitude": 40.6355691, "longitude": -74.0115482}, "phone": "(718) 439-0578", "review_count": 722, "rating": 4.0}, {"businessID": "XkL6fOBtaIqVCMXVCY9row", "name": "H K Wonton Garden", "cuisine": ["cantonese", "noodles", "chinese"], "location": "79 Mulberry St, New York, NY 10013", "zip_code": "10013", "coordinates": {"latitude": 40.7164688110352, "longitude": -73.9992752075195}, "phone": "(212) 349-1495", "review_count": 726, "rating": 3.5}, {"businessID": "pCfGgX0WxGASGM4-Yhr2Pw", "name": "Hao Noodle Chelsea", "cuisine": ["chinese", "bbq", "noodles"], "location": "343 W 14th St, New York, NY 10014", "zip_code": "10014", "coordinates": {"latitude": 40.7406999, "longitude": -74.00436}, "phone": "(646) 882-0059", "review_count": 304, "rating": 4.5}, {"businessID": "uaFHoq-a5XqxF-bsOK9_Qg", "name": "Real Kung Fu Little Steamed Buns Ramen", "cuisine": ["chinese", "ramen"], "location": "811 8th Ave, New York, NY 10019", "zip_code": "10019", "coordinates": {"latitude": 40.7616286634162, "longitude": -73.9868181646996}, "phone": "(917) 388-2555", "review_count": 964, "rating": 3.5}, {"businessID": "yFub1BhKEP-W-_ZM3_nJoQ", "name": "Bodhi Kosher Vegetarian Restaurant", "cuisine": ["vegan", "kosher", "chinese"], "location": "77 Mulberry St, New York, NY 10013", "zip_code": "10013", "coordinates": {"latitude": 40.71641, "longitude": -73.99931}, "phone": "(212) 233-2921", "review_count": 338, "rating": 4.0}, {"businessID": "ZCAkVl5SeCDeBWg_xjfYeg", "name": "Clay Pot - East Village", "cuisine": ["chinese"], "location": "58 St Mark's Pl, New York, NY 10003", "zip_code": "10003", "coordinates": {"latitude": 40.7279880270274, "longitude": -73.9865907985248}, "phone": "(646) 434-6449", "review_count": 289, "rating": 4.0}, {"businessID": "i6RhqnCJ_oUfTu5LikGXUg", "name": "Dun Huang - East Village", "cuisine": ["chinese", "bbq", "noodles"], "location": "300 E 12th St, New York, NY 10003", "zip_code": "10003", "coordinates": {"latitude": 40.73081, "longitude": -73.98568}, "phone": "(212) 254-3817", "review_count": 250, "rating": 4.5}, {"businessID": "kWJF8L1u5jdlkLBItUu16w", "name": "Bo Ky Restaurant", "cuisine": ["chinese", "vietnamese"], "location": "80 Bayard St, New York, NY 10013", "zip_code": "10013", "coordinates": {"latitude": 40.71579, "longitude": -73.99867}, "phone": "(212) 406-2292", "review_count": 716, "rating": 3.5}, {"businessID": "ynB8T3htx8s5V0YV8gVPGA", "name": "21 Shanghai House", "cuisine": ["shanghainese", "dimsum", "chinese"], "location": "21 Division St, New York, NY 10002", "zip_code": "10002", "coordinates": {"latitude": 40.7140138244835, "longitude": -73.9964454932541}, "phone": "", "review_count": 421, "rating": 4.0}, {"businessID": "tsHdT1GDibhYYA0JA7Z9tg", "name": "Xi'an Famous Foods", "cuisine": ["noodles", "burgers", "chinese"], "location": "37 W 54th St, New York, NY 10019", "zip_code": "10019", "coordinates": {"latitude": 40.7620999, "longitude": -73.97732}, "phone": "(212) 786-2068", "review_count": 445, "rating": 4.0}, {"businessID": "B8tDnyFltP3bxMxSsjCvVA", "name": "Mister Hotpot", "cuisine": ["chinese", "hotpot"], "location": "5306 8th Ave, Brooklyn, NY 11220", "zip_code": "11220", "coordinates": {"latitude": 40.6394, "longitude": -74.005859}, "phone": "(718) 633-5197", "review_count": 439, "rating": 4.0}, {"businessID": "1MqGlFP3b7H77fzUkJMKgw", "name": "Mooncake Foods", "cuisine": ["vietnamese", "asianfusion", "chinese"], "location": "28 Watts St, New York, NY 10013", "zip_code": "10013", "coordinates": {"latitude": 40.723596182527, "longitude": -74.00409635108}, "phone": "(212) 219-8888", "review_count": 510, "rating": 4.0}, {"businessID": "Bb0h5Rs8ugSM2CjulRhfBw", "name": "Spicy Moon", "cuisine": ["szechuan", "vegan", "chinese"], "location": "328 E 6th St, New York, NY 10003", "zip_code": "10003", "coordinates": {"latitude": 40.72674, "longitude": -73.98722}, "phone": "(646) 429-8471", "review_count": 187, "rating": 4.5}, {"businessID": "XfHgiIsoo1Pr_v04bx9ptg", "name": "Sushumai Asian Fusion", "cuisine": ["sushi", "japanese", "dimsum", "chinese"], "location": "112 Stanton St, New York, NY 10002", "zip_code": "10002", "coordinates": {"latitude": 40.7211610690848, "longitude": -73.9872866123915}, "phone": "(212) 777-8808", "review_count": 169, "rating": 4.5}, {"businessID": "UiBQ8Uyu4wfOtEM1Rr8ycA", "name": "Shanghai Asian Cuisine", "cuisine": ["shanghainese", "chinese"], "location": "14A Elizabeth St, New York, NY 10013", "zip_code": "10013", "coordinates": {"latitude": 40.7159077, "longitude": -73.997383}, "phone": "(212) 964-5640", "review_count": 472, "rating": 4.0}, {"businessID": "olRNNJCJ2TJvPRmjBiOcGA", "name": "Silky Kitchen", "cuisine": ["chinese", "noodles"], "location": "137 E 13th St, New York, NY 10003", "zip_code": "10003", "coordinates": {"latitude": 40.73297, "longitude": -73.98829}, "phone": "(646) 850-0635", "review_count": 186, "rating": 4.5}, {"businessID": "jc7lVTvmYMIK5RNpENtS6w", "name": "Szechuan Mountain House", "cuisine": ["szechuan", "chinese"], "location": "23 St Marks Pl, New York, NY 10003", "zip_code": "10003", "coordinates": {"latitude": 40.72911, "longitude": -73.98858}, "phone": "(917) 388-3866", "review_count": 287, "rating": 4.0}, {"businessID": "3K7Kc82bhU6-qjAjsBs3Fw", "name": "Lao Bei Fang Dumpling House", "cuisine": ["chinese", "noodles"], "location": "8305 Broadway, Elmhurst, NY 11373", "zip_code": "11373", "coordinates": {"latitude": 40.741153717041, "longitude": -73.8796234130859}, "phone": "(718) 639-3996", "review_count": 555, "rating": 4.0}, {"businessID": "vgG8hgJbPLKfx-n9TYqCDw", "name": "Ling Kee Beef Jerky", "cuisine": ["chinese", "bbq"], "location": "42 Canal St, New York, NY 10002", "zip_code": "10002", "coordinates": {"latitude": 40.71466, "longitude": -73.99148}, "phone": "(212) 965-1206", "review_count": 166, "rating": 4.5}, {"businessID": "ovOupYdkZOWUeDMOdt--ng", "name": "China North Dumpling", "cuisine": ["chinese"], "location": "27 Essex St, Ste A, New York, NY 10002", "zip_code": "10002", "coordinates": {"latitude": 40.7158, "longitude": -73.9898}, "phone": "", "review_count": 298, "rating": 4.0}, {"businessID": "B98cXrMI16HslKLqg6Nb9A", "name": "Oriental Garden Restaurant", "cuisine": ["dimsum", "seafood", "cantonese", "chinese"], "location": "14 Elizabeth St, New York, NY 10013", "zip_code": "10013", "coordinates": {"latitude": 40.7159199, "longitude": -73.9972499}, "phone": "(212) 619-0085", "review_count": 527, "rating": 4.0}, {"businessID": "kNOr6_g6QfBHdhf89j3g5w", "name": "Taiwan Pork Chop House", "cuisine": ["taiwanese", "chinese", "noodles"], "location": "3 Doyers St, New York, NY 10013", "zip_code": "10013", "coordinates": {"latitude": 40.71424, "longitude": -73.99799}, "phone": "(212) 791-7007", "review_count": 425, "rating": 4.0}, {"businessID": "RTFIMX31BPeZzx7kJJ1SCA", "name": "RedFarm", "cuisine": ["dimsum", "asianfusion", "cantonese", "chinese"], "location": "529 Hudson St, New York, NY 10014", "zip_code": "10014", "coordinates": {"latitude": 40.7342, "longitude": -74.00652}, "phone": "(212) 792-9700", "review_count": 650, "rating": 3.5}, {"businessID": "91rrB0aH3caC70oCkxAynA", "name": "Deluxe Green Bo", "cuisine": ["chinese"], "location": "66 Bayard St, New York, NY 10013", "zip_code": "10013", "coordinates": {"latitude": 40.715540215765, "longitude": -73.9981645926656}, "phone": "(212) 625-2359", "review_count": 612, "rating": 3.5}, {"businessID": "v0opDMezc6pKgdfR22KUnQ", "name": "Da Tang Szechuan", "cuisine": ["szechuan", "chinese"], "location": "18 W 38th St, New York, NY 10018", "zip_code": "10018", "coordinates": {"latitude": 40.75128, "longitude": -73.98376}, "phone": "(646) 478-8345", "review_count": 170, "rating": 4.5}, {"businessID": "spJTHaNjEzKwoEiYWR1ggA", "name": "Ping's Seafood", "cuisine": ["seafood", "dimsum", "cantonese", "chinese"], "location": "22 Mott St, New York, NY 10013", "zip_code": "10013", "coordinates": {"latitude": 40.714442, "longitude": -73.998636}, "phone": "(212) 602-9988", "review_count": 646, "rating": 3.5}, {"businessID": "tA_AoGEL_oGllbU2j77Shw", "name": "Tiny Shanghai", "cuisine": ["shanghainese", "chinese"], "location": "122 Mulberry St, New York, NY 10013", "zip_code": "10013", "coordinates": {"latitude": 40.71781, "longitude": -73.99795}, "phone": "(917) 261-7898", "review_count": 228, "rating": 4.5}, {"businessID": "6tASYtO9zOrXr8-LPnAToQ", "name": "Zest Szechuan", "cuisine": ["szechuan", "seafood", "chinese"], "location": "45 W 39th St, New York, NY 10018", "zip_code": "10018", "coordinates": {"latitude": 40.75274, "longitude": -73.98445}, "phone": "(646) 870-0521", "review_count": 548, "rating": 4.0}, {"businessID": "Y1s36Tk63HIzAc76X_fAiQ", "name": "Hop Shing Restaurant", "cuisine": ["dimsum", "cantonese", "chinese"], "location": "9 Chatham Sq, Ste 1, New York, NY 10038", "zip_code": "10038", "coordinates": {"latitude": 40.71418, "longitude": -73.99811}, "phone": "(212) 267-0220", "review_count": 522, "rating": 3.5}, {"businessID": "B87c3bE_u53yNYO1cmHSIw", "name": "Flor de Mayo", "cuisine": ["chinese", "peruvian", "cuban"], "location": "2651 Broadway, New York, NY 10025", "zip_code": "10025", "coordinates": {"latitude": 40.797859, "longitude": -73.969948}, "phone": "(212) 663-5520", "review_count": 547, "rating": 4.0}, {"businessID": "84zvcPTAVCsSVtzCUtSDtA", "name": "Cha Chan Tang \u8336\u9910\u5ef3", "cuisine": ["chinese", "hkcafe"], "location": "45 Mott St, New York, NY 10013", "zip_code": "10013", "coordinates": {"latitude": 40.7153, "longitude": -73.99896}, "phone": "(212) 577-2888", "review_count": 1008, "rating": 3.0}, {"businessID": "Z9t-ou4JhiBu-n4-F7hDng", "name": "Meet Noodles", "cuisine": ["noodles", "chinese", "ramen"], "location": "50 3rd Ave, New York, NY 10003", "zip_code": "10003", "coordinates": {"latitude": 40.73097, "longitude": -73.9891}, "phone": "(646) 882-0458", "review_count": 133, "rating": 4.5}, {"businessID": "cn3JXMq29UfRkFCUD0Bhbw", "name": "Fried Dumpling", "cuisine": ["chinese"], "location": "106 Mosco St, New York, NY 10013", "zip_code": "10013", "coordinates": {"latitude": 40.7145984, "longitude": -73.9993465}, "phone": "(212) 693-1060", "review_count": 505, "rating": 3.5}, {"businessID": "dn8_HgoGUE4IFzwPI6GeLA", "name": "Kai Feng Fu \u958b\u5c01\u5e9c\u934b\u8cbc", "cuisine": ["chinese"], "location": "4801 8th Ave, Brooklyn, NY 11220", "zip_code": "11220", "coordinates": {"latitude": 40.64201, "longitude": -74.00238}, "phone": "(718) 437-3542", "review_count": 241, "rating": 4.0}, {"businessID": "WRPJeH3goSpj5ke3Pkrnfw", "name": "Burp Bowl Cafe", "cuisine": ["chinese", "noodles", "soup"], "location": "134 E 27th St, New York, NY 10010", "zip_code": "10010", "coordinates": {"latitude": 40.74183, "longitude": -73.98271}, "phone": "(929) 261-6643", "review_count": 204, "rating": 4.5}, {"businessID": "2eR8ftw-GiTEwg3Y7Rm-MA", "name": "Mimi Cheng's Dumplings", "cuisine": ["taiwanese", "dimsum", "chinese"], "location": "179 2nd Ave, New York, NY 10003", "zip_code": "10003", "coordinates": {"latitude": 40.7305254, "longitude": -73.986285}, "phone": "(212) 533-2007", "review_count": 644, "rating": 3.5}, {"businessID": "bcqTacyE-0XDaZYG_xbTBQ", "name": "The Tang - East Village", "cuisine": ["noodles", "chinese", "taiwanese"], "location": "120 1st Ave, New York, NY 10009", "zip_code": "10009", "coordinates": {"latitude": 40.72703, "longitude": -73.98539}, "phone": "(646) 678-3092", "review_count": 333, "rating": 4.0}, {"businessID": "ojbH3wnRu050hRhkmoxRiA", "name": "Han Dynasty", "cuisine": ["szechuan", "chinese"], "location": "215 W 85th St, New York, NY 10024", "zip_code": "10024", "coordinates": {"latitude": 40.78752, "longitude": -73.97647}, "phone": "(212) 858-9060", "review_count": 565, "rating": 4.0}, {"businessID": "ZUBqQZwMGZSOVbfpOI_uyg", "name": "Vanessa's Dumpling House", "cuisine": ["chinese"], "location": "220 E 14th St, New York, NY 10003", "zip_code": "10003", "coordinates": {"latitude": 40.73277, "longitude": -73.98636}, "phone": "(212) 529-1329", "review_count": 1064, "rating": 3.0}, {"businessID": "iSjPBJRiWqrgxW7ZM3CGig", "name": "Birds of a Feather", "cuisine": ["szechuan", "chinese"], "location": "191 Grand St, Brooklyn, NY 11211", "zip_code": "11211", "coordinates": {"latitude": 40.71442, "longitude": -73.960441}, "phone": "(718) 969-6800", "review_count": 289, "rating": 4.0}, {"businessID": "duofsxNkSFWVre6eV1uhUQ", "name": "Little Sheep Mongolian Hot Pot", "cuisine": ["mongolian", "hotpot", "chinese"], "location": "105 Bowery, New York, NY 10002", "zip_code": "10002", "coordinates": {"latitude": 40.71764, "longitude": -73.99504}, "phone": "(646) 484-5707", "review_count": 250, "rating": 4.0}, {"businessID": "lRSiXYB09Z5x1iINqQ7rHA", "name": "Dim Sum Go Go", "cuisine": ["dimsum", "chinese"], "location": "5 E Broadway, New York, NY 10038", "zip_code": "10038", "coordinates": {"latitude": 40.7132415735622, "longitude": -73.9977319419107}, "phone": "(212) 732-0797", "review_count": 759, "rating": 3.5}, {"businessID": "FXhSEZfIqjMZh4hR0_8jMQ", "name": "China Xiang \u4e2d\u56fd\u6e58", "cuisine": ["chinese"], "location": "360 W 42nd Street, New York, NY 10036", "zip_code": "10036", "coordinates": {"latitude": 40.7582902125633, "longitude": -73.9925113993899}, "phone": "(212) 967-6088", "review_count": 430, "rating": 4.0}, {"businessID": "q4nXkBAk4zXtFkIIO231sQ", "name": "City Cafe \u98a8\u6210", "cuisine": ["cantonese", "hkcafe", "chinese"], "location": "5603 8th Ave, Brooklyn, NY 11220", "zip_code": "11220", "coordinates": {"latitude": 40.63749, "longitude": -74.00711}, "phone": "(718) 686-8288", "review_count": 83, "rating": 3.0}, {"businessID": "l4fdf4e_xFvNnKqfdm3SLg", "name": "Jung's Dried Beef", "cuisine": ["chinese"], "location": "58 Mulberry St, New York, NY 10013", "zip_code": "10013", "coordinates": {"latitude": 40.71541, "longitude": -73.99928}, "phone": "(212) 732-7645", "review_count": 13, "rating": 4.5}, {"businessID": "ZdLS7gD1ulmCPkqNc9_S3A", "name": "Keming Restaurant", "cuisine": ["szechuan", "hotpot", "chinese"], "location": "1006 Washington St, Hoboken, NJ 07030", "zip_code": "07030", "coordinates": {"latitude": 40.74893, "longitude": -74.02772}, "phone": "(201) 656-6108", "review_count": 131, "rating": 3.5}, {"businessID": "WgQkB7cbPNgj0pLin7gQtw", "name": "La Nueva Victoria", "cuisine": ["chinese", "spanish", "asianfusion"], "location": "2536 Broadway, New York, NY 10025", "zip_code": "10025", "coordinates": {"latitude": 40.79372, "longitude": -73.971954}, "phone": "(212) 865-1810", "review_count": 88, "rating": 3.5}, {"businessID": "pMgk7E6bCG5Aj2sLuowobw", "name": "Golden Chopstick", "cuisine": ["chinese"], "location": "789 Franklin Ave, Brooklyn, NY 11238", "zip_code": "11238", "coordinates": {"latitude": 40.6718339, "longitude": -73.957229}, "phone": "(718) 493-1037", "review_count": 67, "rating": 3.5}, {"businessID": "sEShqxRbZuWqjXEVCGMK9g", "name": "Talk of the Town", "cuisine": ["chinese", "indian"], "location": "37-21 72nd St, Jackson Heights, NY 11372", "zip_code": "11372", "coordinates": {"latitude": 40.74807, "longitude": -73.89348}, "phone": "(718) 533-9131", "review_count": 92, "rating": 3.0}, {"businessID": "3kq1_dUIPrA6BFTuX-M6mw", "name": "Jianbing Company", "cuisine": ["foodstands", "shanghainese", "chinese"], "location": "600 11th Ave, New York, NY 10036", "zip_code": "10036", "coordinates": {"latitude": 40.76234, "longitude": -73.99695}, "phone": "(917) 336-2927", "review_count": 43, "rating": 3.5}, {"businessID": "sbAy2LhWHjqmOX3wBEsPNA", "name": "Jiangnan Pancake", "cuisine": ["noodles", "chinese", "creperies"], "location": "1818 86th St, Unit 3, Brooklyn, NY 11214", "zip_code": "11214", "coordinates": {"latitude": 40.60679, "longitude": -74.00219}, "phone": "(929) 605-7203", "review_count": 36, "rating": 4.0}, {"businessID": "N_lF4aVGdJbHkDcOIqEpBA", "name": "Savoy 4 Bakery", "cuisine": ["bakeries", "coffee", "chinese"], "location": "4501 4th Ave, Brooklyn, NY 11220", "zip_code": "11220", "coordinates": {"latitude": 40.64899, "longitude": -74.00944}, "phone": "(718) 853-5165", "review_count": 35, "rating": 4.0}, {"businessID": "gWaK8OEXawE43-Di0ykTNQ", "name": "Canton Lounge", "cuisine": ["seafood", "cantonese", "chinese"], "location": "70 Mott St, New York, NY 10013", "zip_code": "10013", "coordinates": {"latitude": 40.716205, "longitude": -73.997863}, "phone": "(212) 219-8066", "review_count": 148, "rating": 3.0}, {"businessID": "e0HGXP2YlFtpgF6hy9dVdA", "name": "NaanChing Bistro & Bar", "cuisine": ["indian", "chinese", "thai"], "location": "103 Montgomery St, Jersey City, NJ 07302", "zip_code": "07302", "coordinates": {"latitude": 40.71674, "longitude": -74.03896}, "phone": "(201) 984-0709", "review_count": 137, "rating": 3.5}, {"businessID": "dRrIJiVrjD2cLO_3bmfX-Q", "name": "Shanghai Family Dumpling", "cuisine": ["shanghainese", "chinese"], "location": "6301 8th Ave, Brooklyn, NY 11220", "zip_code": "11220", "coordinates": {"latitude": 40.6333541870117, "longitude": -74.011344909668}, "phone": "(718) 745-2620", "review_count": 66, "rating": 3.5}, {"businessID": "vWEKZVPIYFewfqCOkkvVIQ", "name": "Lin's Garden", "cuisine": ["chinese"], "location": "652 Seneca Ave, Ridgewood, NY 11385", "zip_code": "11385", "coordinates": {"latitude": 40.7034531, "longitude": -73.9090729}, "phone": "(718) 366-2388", "review_count": 44, "rating": 4.0}, {"businessID": "emaMBqN_eWu71rgnQEnG3g", "name": "Szechuan Garden", "cuisine": ["chinese"], "location": "463 7th Ave, Brooklyn, NY 11215", "zip_code": "11215", "coordinates": {"latitude": 40.662378, "longitude": -73.98508}, "phone": "(718) 788-2886", "review_count": 72, "rating": 3.5}, {"businessID": "eAlXJKxQ1zgYNB0LyHHlmw", "name": "Xun Yu Si Kao", "cuisine": ["szechuan", "chinese"], "location": "5609 7th Ave, Brooklyn, NY 11220", "zip_code": "11220", "coordinates": {"latitude": 40.63879, "longitude": -74.0095}, "phone": "(929) 310-5555", "review_count": 18, "rating": 4.5}, {"businessID": "pjbMNd88LRNxvrwaO8kEhQ", "name": "New Apollo II", "cuisine": ["chinese", "spanish"], "location": "1477 Myrtle Ave, Brooklyn, NY 11237", "zip_code": "11237", "coordinates": {"latitude": 40.6991691589355, "longitude": -73.9166564941406}, "phone": "(718) 483-8288", "review_count": 51, "rating": 3.5}, {"businessID": "PXm4BNjTgWHYClemDAkDjw", "name": "Asian Kitchen", "cuisine": ["chinese"], "location": "8543 Grand Ave, Elmhurst, NY 11373", "zip_code": "11373", "coordinates": {"latitude": 40.7358398, "longitude": -73.8809509}, "phone": "(718) 565-0906", "review_count": 29, "rating": 4.0}, {"businessID": "BbODF2tZuw4xW_RFwMzwRg", "name": "Jiangnan Chinese Cuisine", "cuisine": ["shanghainese", "chinese"], "location": "103 Washington St, Fl 2, New York, NY 10006", "zip_code": "10006", "coordinates": {"latitude": 40.70838, "longitude": -74.01408}, "phone": "(212) 962-2096", "review_count": 50, "rating": 3.5}, {"businessID": "Sxpy4HvdiqTQt5BcplUAHg", "name": "Hibachi Master", "cuisine": ["chinese", "japanese", "sushi"], "location": "8512 5th Ave, Brooklyn, NY 11209", "zip_code": "11209", "coordinates": {"latitude": 40.6218792788992, "longitude": -74.0259179657283}, "phone": "(347) 662-6118", "review_count": 53, "rating": 3.5}, {"businessID": "XoxEVVf5Ci8nibQ-Q4P0nQ", "name": "Chinese Musician Restaurant", "cuisine": ["chinese"], "location": "151 Greenpoint Ave, Brooklyn, NY 11222", "zip_code": "11222", "coordinates": {"latitude": 40.7303597, "longitude": -73.9537321}, "phone": "(718) 383-2413", "review_count": 124, "rating": 3.0}, {"businessID": "MdD_PgW2A4XP1WMkHbOWng", "name": "New Victory", "cuisine": ["chinese", "spanish", "bars"], "location": "4803 5th Ave, Brooklyn, NY 11371", "zip_code": "11371", "coordinates": {"latitude": 40.6459807, "longitude": -74.0091191}, "phone": "(718) 431-2938", "review_count": 33, "rating": 4.0}, {"businessID": "2rSmA4IK51QAQj60YGvjnw", "name": "New Asian Cuisine", "cuisine": ["asianfusion", "chinese"], "location": "44-20 48th Ave, Woodside, NY 11377", "zip_code": "11377", "coordinates": {"latitude": 40.7393524, "longitude": -73.9210213}, "phone": "(718) 784-4989", "review_count": 24, "rating": 4.0}, {"businessID": "mRhPjOOf17Q-a8CwLbmBvA", "name": "Empire Express", "cuisine": ["chinese"], "location": "319 9th St, Brooklyn, NY 11215", "zip_code": "11215", "coordinates": {"latitude": 40.66918, "longitude": -73.98567}, "phone": "(718) 499-3758", "review_count": 36, "rating": 3.5}, {"businessID": "wpJGWi1LQsCd7Leq3Y4RqQ", "name": "Chef Tan Newport \u8700\u6e58\u95e8\u7b2c", "cuisine": ["szechuan", "chinese"], "location": "558 Washington Blvd, Jersey City, NJ 07310", "zip_code": "07310", "coordinates": {"latitude": 40.7283333339534, "longitude": -74.0344276659991}, "phone": "(201) 987-7070", "review_count": 126, "rating": 3.5}, {"businessID": "bTYUKs5ChOafHL2fNYzG7g", "name": "Silver Star Restaurant", "cuisine": ["chinese", "seafood", "noodles"], "location": "6221 18th Ave, Brooklyn, NY 11204", "zip_code": "11204", "coordinates": {"latitude": 40.62037, "longitude": -73.988719}, "phone": "(718) 331-2799", "review_count": 58, "rating": 3.5}, {"businessID": "LYp3izplqg0x-h9CBlb-MQ", "name": "China Gourmet", "cuisine": ["chinese"], "location": "877 8th Ave, New York, NY 10019", "zip_code": "10019", "coordinates": {"latitude": 40.76381, "longitude": -73.98524}, "phone": "(212) 246-8181", "review_count": 213, "rating": 2.5}, {"businessID": "kwGaeWUVC_MIxMFw0sM-Ww", "name": "Hong Kong Express", "cuisine": ["chinese"], "location": "989 Wyckoff Ave, Ridgewood, NY 11385", "zip_code": "11385", "coordinates": {"latitude": 40.69617, "longitude": -73.904721}, "phone": "(718) 456-1858", "review_count": 42, "rating": 4.0}, {"businessID": "4WyXnioHqTIcaFFN_TS1Vw", "name": "Ling Long Xuan Restaurant", "cuisine": ["chinese"], "location": "586 Newark Ave, Jersey City, NJ 07306", "zip_code": "07306", "coordinates": {"latitude": 40.73237, "longitude": -74.0569}, "phone": "(201) 763-6635", "review_count": 73, "rating": 4.0}, {"businessID": "w0pDi_iMZd5MqYQ7t5q1dQ", "name": "Christopher's Golden Woks", "cuisine": ["chinese"], "location": "159 Christopher St, New York, NY 10014", "zip_code": "10014", "coordinates": {"latitude": 40.73284, "longitude": -74.00836}, "phone": "(212) 463-8182", "review_count": 51, "rating": 3.5}, {"businessID": "vkgl6UT8e7PXoVZUhxXq8w", "name": "Good Taste", "cuisine": ["chinese"], "location": "3801 29th St, Long Island City, NY 11101", "zip_code": "11101", "coordinates": {"latitude": 40.7543728, "longitude": -73.9335449}, "phone": "(718) 706-8777", "review_count": 47, "rating": 3.5}, {"businessID": "euYzPWTvH9w9KC4wzhzGkQ", "name": "Asia", "cuisine": ["chinese"], "location": "63104 Woodhaven Blvd, Rego Park, NY 11374", "zip_code": "11374", "coordinates": {"latitude": 40.721936, "longitude": -73.8666669}, "phone": "(718) 416-3333", "review_count": 31, "rating": 4.0}, {"businessID": "2pnhIRBUw58PpN8CQEYiZA", "name": "New Food King", "cuisine": ["chinese"], "location": "694 10th Ave, New York, NY 10036", "zip_code": "10036", "coordinates": {"latitude": 40.76366, "longitude": -73.99217}, "phone": "(212) 307-6701", "review_count": 62, "rating": 3.5}, {"businessID": "GKZa6xX1ZctdDTLDyfGBHw", "name": "Thank You Come Again", "cuisine": ["chinese"], "location": "445 Albee Square W, Brooklyn, NY 11201", "zip_code": "11201", "coordinates": {"latitude": 40.69121, "longitude": -73.98331}, "phone": "", "review_count": 20, "rating": 4.0}, {"businessID": "rlJ2Moc6A9R3qpYJlR8D3Q", "name": "Bamboo Express", "cuisine": ["chinese", "caribbean"], "location": "772 Flatbush Ave, Ste A, Brooklyn, NY 11226", "zip_code": "11226", "coordinates": {"latitude": 40.65395, "longitude": -73.95993}, "phone": "(718) 469-0117", "review_count": 31, "rating": 4.0}, {"businessID": "bSi2f2TaOr4RVTI5eFt0wQ", "name": "Taste Of North China", "cuisine": ["chinese"], "location": "75 Montgomery St, Jersey City, NJ 07302", "zip_code": "07302", "coordinates": {"latitude": 40.7167868, "longitude": -74.0377625661521}, "phone": "(201) 521-1800", "review_count": 206, "rating": 3.0}, {"businessID": "QxyhvapwK86NPX-nzrKF2w", "name": "JIN Kitchen and Bar", "cuisine": ["asianfusion", "szechuan", "chinese"], "location": "58 3rd Ave, New York, NY 10003", "zip_code": "10003", "coordinates": {"latitude": 40.73112, "longitude": -73.98898}, "phone": "(212) 358-8898", "review_count": 37, "rating": 3.5}, {"businessID": "kYJbGSjyXocbRrgMV-zExg", "name": "Six Happiness", "cuisine": ["chinese"], "location": "1413 2nd Ave, New York, NY 10021", "zip_code": "10021", "coordinates": {"latitude": 40.7700042724609, "longitude": -73.9578247070312}, "phone": "(212) 988-8002", "review_count": 118, "rating": 3.0}, {"businessID": "56wxE888GknVcUeAXBfqFw", "name": "Shanghai Lee", "cuisine": ["chinese"], "location": "157 Franklin St, Brooklyn, NY 11222", "zip_code": "11222", "coordinates": {"latitude": 40.7318, "longitude": -73.9582099}, "phone": "(718) 349-6716", "review_count": 123, "rating": 3.0}, {"businessID": "G4K-mNlM0oLKo8N--Ne2AA", "name": "Sampan Chinese Restaurant", "cuisine": ["chinese"], "location": "28-48 Steinway St, Astoria, NY 11103", "zip_code": "11103", "coordinates": {"latitude": 40.7644, "longitude": -73.9148699}, "phone": "(718) 278-1931", "review_count": 71, "rating": 3.0}, {"businessID": "LWp9J-jrHw9v-qyFgAYfyw", "name": "Xi'an Famous Foods", "cuisine": ["chinese", "noodles"], "location": "55-01 37th Ave, Woodside, NY 11377", "zip_code": "11377", "coordinates": {"latitude": 40.75105, "longitude": -73.90653}, "phone": "(212) 786-2068", "review_count": 11, "rating": 4.5}, {"businessID": "ybQV8joopvU1_gG2RwLRog", "name": "Wok City", "cuisine": ["chinese"], "location": "153 Amsterdam Ave, New York, NY 10023", "zip_code": "10023", "coordinates": {"latitude": 40.7752417820046, "longitude": -73.983876645396}, "phone": "(212) 496-9714", "review_count": 79, "rating": 3.0}, {"businessID": "uP0zrPN8vCMxTe1jnsKsZQ", "name": "Lee's Restaurant", "cuisine": ["chinese"], "location": "1546 Myrtle Ave, Brooklyn, NY 11237", "zip_code": "11237", "coordinates": {"latitude": 40.69939, "longitude": -73.91177}, "phone": "(718) 366-0114", "review_count": 48, "rating": 3.5}, {"businessID": "yYb0d4LHFgH65KZeKuxwpQ", "name": "Rich Village Restaurant", "cuisine": ["cantonese", "chinese"], "location": "6009 7th Ave, Brooklyn, NY 11220", "zip_code": "11220", "coordinates": {"latitude": 40.63645, "longitude": -74.01178}, "phone": "(718) 238-8628", "review_count": 23, "rating": 4.0}, {"businessID": "xbqj3dfKWNKrWQlGD8kOZQ", "name": "Xinjiang House", "cuisine": ["halal", "food_court", "chinese"], "location": "8202 45th Ave, Elmhurst, NY 11373", "zip_code": "11373", "coordinates": {"latitude": 40.7414872, "longitude": -73.8827301}, "phone": "", "review_count": 11, "rating": 4.5}, {"businessID": "BcOuqkUniZJG5NLpdzeOYQ", "name": "Friendly Restaurant", "cuisine": ["chinese"], "location": "1205 40th Ave, Long Island City, NY 11101", "zip_code": "11101", "coordinates": {"latitude": 40.7559963313064, "longitude": -73.9424634196434}, "phone": "(718) 784-3891", "review_count": 60, "rating": 3.5}, {"businessID": "BLYomPDQX5HkNWFJ2Lxfpg", "name": "Szechuan Delight Restaurant", "cuisine": ["chinese"], "location": "152 7th Ave, Brooklyn, NY 11215", "zip_code": "11215", "coordinates": {"latitude": 40.67254, "longitude": -73.97706}, "phone": "(718) 788-5408", "review_count": 100, "rating": 3.0}, {"businessID": "H87c1gVVCKneyI0LxaDFxQ", "name": "Corgi Jianbing", "cuisine": ["chinese", "foodtrucks", "creperies"], "location": "4405 Hunter St, Long Island City, NY 11101", "zip_code": "11101", "coordinates": {"latitude": 40.7474918, "longitude": -73.9433018}, "phone": "(347) 685-5433", "review_count": 10, "rating": 5.0}, {"businessID": "QFOYvQK9y2jM7ue-DXkw2g", "name": "Family Garden", "cuisine": ["chinese"], "location": "1709 Foster Ave, Brooklyn, NY 11230", "zip_code": "11230", "coordinates": {"latitude": 40.635335, "longitude": -73.960987}, "phone": "(718) 859-2738", "review_count": 27, "rating": 4.0}, {"businessID": "KgosIJNr-XTOsjkiKlS4vQ", "name": "Five Loaves And Two Fishes", "cuisine": ["dimsum", "bbq", "sushi", "chinese"], "location": "82-72 Broadway, Elmhurst, NY 11373", "zip_code": "11373", "coordinates": {"latitude": 40.7414670731217, "longitude": -73.8805758857673}, "phone": "(718) 899-5185", "review_count": 50, "rating": 3.5}, {"businessID": "OfVP8lDL1Juk8b8Hlx7fQg", "name": "New China Tung", "cuisine": ["chinese", "asianfusion"], "location": "140 5th Ave, Brooklyn, NY 11217", "zip_code": "11217", "coordinates": {"latitude": 40.678642, "longitude": -73.97927}, "phone": "(718) 638-5682", "review_count": 47, "rating": 3.5}, {"businessID": "WOdT_KTZ74xBswOx5zy-YA", "name": "W W Cafe", "cuisine": ["hkcafe", "cantonese", "chinese"], "location": "968 58th St, Brooklyn, NY 11219", "zip_code": "11219", "coordinates": {"latitude": 40.63419, "longitude": -74.00449}, "phone": "(718) 790-3143", "review_count": 13, "rating": 4.5}, {"businessID": "VEjkxniAlG35cR3pjHvF-A", "name": "Sagar Chinese - Jackson Heights", "cuisine": ["chinese", "halal", "asianfusion"], "location": "74-19 37th Ave, Jackson Heights, NY 11372", "zip_code": "11372", "coordinates": {"latitude": 40.7491052, "longitude": -73.8914956}, "phone": "(718) 505-1002", "review_count": 117, "rating": 3.0}, {"businessID": "U0EJ4URMoFHJEzAkMp4WWQ", "name": "Ollie's To Go", "cuisine": ["chinese", "sushi", "bubbletea"], "location": "2425 Broadway, New York, NY 10024", "zip_code": "10024", "coordinates": {"latitude": 40.7904902, "longitude": -73.9752417}, "phone": "(212) 877-2298", "review_count": 144, "rating": 2.5}, {"businessID": "VdNb9hmg9Fh_tbdS3qHVsw", "name": "Fu Lai Kitchen", "cuisine": ["chinese"], "location": "7023 Fort Hamilton Pkwy, Brooklyn, NY 11228", "zip_code": "11228", "coordinates": {"latitude": 40.62763, "longitude": -74.01319}, "phone": "(718) 833-3853", "review_count": 29, "rating": 4.0}, {"businessID": "A_fZL0ir_actclrL-ePTOw", "name": "JJ Kitchen", "cuisine": ["chinese"], "location": "475 B Myrtle Ave, Brooklyn, NY 11205", "zip_code": "11205", "coordinates": {"latitude": 40.69354, "longitude": -73.96627}, "phone": "(718) 636-0468", "review_count": 15, "rating": 4.5}, {"businessID": "IBMaz2RZPkU1Ng9b8A6ywg", "name": "Lin's Kitchen", "cuisine": ["chinese"], "location": "70-24 35th Ave, Jackson Heights, NY 11372", "zip_code": "11372", "coordinates": {"latitude": 40.75051, "longitude": -73.8955064}, "phone": "(718) 505-1388", "review_count": 39, "rating": 3.5}, {"businessID": "_eWN3zih_cnY0fiLWva9EA", "name": "Li Wan Restaurant", "cuisine": ["chinese"], "location": "6428 Metropolitan Ave, Middle Village, NY 11379", "zip_code": "11379", "coordinates": {"latitude": 40.7122917175293, "longitude": -73.8961334228516}, "phone": "(718) 417-0808", "review_count": 25, "rating": 4.0}, {"businessID": "gP2ru9_58VN-4mZCOUxUfA", "name": "BBQ Kabob Cart", "cuisine": ["chinese", "streetvendors"], "location": "Corner of 61st St & 8th Ave, Brooklyn, NY 11220", "zip_code": "11220", "coordinates": {"latitude": 40.6349526663991, "longitude": -74.0114368588205}, "phone": "", "review_count": 23, "rating": 4.0}, {"businessID": "PKkCtyZQpVEzivSF41ZgIw", "name": "Sunrise Chinese Restaurant", "cuisine": ["chinese"], "location": "3320 Broadway, Astoria, NY 11106", "zip_code": "11106", "coordinates": {"latitude": 40.760806, "longitude": -73.923281}, "phone": "(718) 956-3223", "review_count": 44, "rating": 3.5}, {"businessID": "bzGe51q5j1AvKG7DbDZk5g", "name": "Bay House Bistro", "cuisine": ["thai", "chinese", "sushi"], "location": "574 Bay St, Staten Island, NY 10304", "zip_code": "10304", "coordinates": {"latitude": 40.6278259, "longitude": -74.0764928}, "phone": "(718) 715-9539", "review_count": 67, "rating": 3.0}, {"businessID": "B9JGlCZ6XkKPXXhTaYwAlA", "name": "RJR Yummy Kitchen", "cuisine": ["chinese"], "location": "9021 31st Ave, East Elmhurst, NY 11369", "zip_code": "11369", "coordinates": {"latitude": 40.7601665, "longitude": -73.8783152}, "phone": "(718) 476-2836", "review_count": 28, "rating": 4.0}, {"businessID": "SyEJPitYvvjrnnSXOzGcDA", "name": "Noodle Q", "cuisine": ["chinese", "noodles"], "location": "2 E Broadway, New York, NY 10038", "zip_code": "10038", "coordinates": {"latitude": 40.7135648935571, "longitude": -73.9975924790089}, "phone": "(212) 219-8223", "review_count": 30, "rating": 3.5}, {"businessID": "inp9N7bo9zqQSa8h8UBhqg", "name": "Empire Szechuan", "cuisine": ["chinese", "japanese"], "location": "193 Columbus Ave, New York, NY 10023", "zip_code": "10023", "coordinates": {"latitude": 40.775683, "longitude": -73.980178}, "phone": "(212) 496-8778", "review_count": 220, "rating": 2.5}, {"businessID": "Tk605KjXVTnXpGkOSuVBaQ", "name": "Asian Garden", "cuisine": ["japanese", "thai", "chinese"], "location": "84-17 Jamaica Ave, Jamaica, NY 11421", "zip_code": "11421", "coordinates": {"latitude": 40.6925863273397, "longitude": -73.8603101670742}, "phone": "(718) 805-3636", "review_count": 18, "rating": 4.5}, {"businessID": "5sG_S51rleFhCKLgQpXc_g", "name": "New Sunny East 88", "cuisine": ["chinese"], "location": "1680 1st Ave, New York, NY 10128", "zip_code": "10128", "coordinates": {"latitude": 40.777902, "longitude": -73.94825}, "phone": "(212) 876-9332", "review_count": 63, "rating": 3.5}, {"businessID": "gxEYxWqKVhs8xBw9Lvd7hA", "name": "East Garden Chinese Restaurant", "cuisine": ["chinese"], "location": "1685 1st Ave, New York, NY 10128", "zip_code": "10128", "coordinates": {"latitude": 40.77793, "longitude": -73.94902}, "phone": "(212) 831-5900", "review_count": 53, "rating": 3.5}, {"businessID": "hQ1WItXONlYKd3yzDUPBYQ", "name": "Kungfu Kitchen", "cuisine": ["dimsum", "ramen", "chinese"], "location": "805 8AVE, New York, NY 10019", "zip_code": "10019", "coordinates": {"latitude": 40.7614, "longitude": -73.98698}, "phone": "(646) 852-6941", "review_count": 56, "rating": 3.5}, {"businessID": "Dh2I2jRTXE7oDCfuA9vCoQ", "name": "Super China Pagoda", "cuisine": ["chinese"], "location": "4720 30th Ave, Astoria, NY 11103", "zip_code": "11103", "coordinates": {"latitude": 40.7610039, "longitude": -73.9091797}, "phone": "(718) 626-0388", "review_count": 43, "rating": 3.5}, {"businessID": "9j5r0NlYKRkBTVvnAcUcwg", "name": "China Taste", "cuisine": ["chinese"], "location": "1570 A 2nd Ave, New York, NY 10028", "zip_code": "10028", "coordinates": {"latitude": 40.7749559083727, "longitude": -73.9537757635117}, "phone": "(212) 650-0189", "review_count": 65, "rating": 3.0}, {"businessID": "cDs0M0149bygyS0TpB-xHA", "name": "Spicy Bampa", "cuisine": ["szechuan", "chinese"], "location": "6920 18th Ave, Brooklyn, NY 11204", "zip_code": "11204", "coordinates": {"latitude": 40.6165504455566, "longitude": -73.9932022094727}, "phone": "(718) 236-8088", "review_count": 74, "rating": 3.0}, {"businessID": "H7kT9MKx1i4VGruZc04ktg", "name": "Taste of Guilin", "cuisine": ["chinese"], "location": "6307 8th Ave, Brooklyn, NY 11220", "zip_code": "11220", "coordinates": {"latitude": 40.633513226377, "longitude": -74.0115089192536}, "phone": "(718) 833-8806", "review_count": 46, "rating": 3.5}, {"businessID": "KNb3eY6QRTDBPcaWbww2Ag", "name": "Lian Sheng Restaurant", "cuisine": ["cafes", "cantonese", "bubbletea", "chinese"], "location": "5722B 8th Ave, Sunset Park, NY 11220", "zip_code": "11220", "coordinates": {"latitude": 40.6368565751912, "longitude": -74.008670398813}, "phone": "", "review_count": 25, "rating": 4.0}, {"businessID": "FDhOPRZ01PDEEH-QCnVIyQ", "name": "Chef Quang Guyanese Chinese Express", "cuisine": ["caribbean", "chinese"], "location": "3360 Atlantic Ave, Brooklyn, NY 11208", "zip_code": "11208", "coordinates": {"latitude": 40.681229, "longitude": -73.872071}, "phone": "(347) 305-3470", "review_count": 47, "rating": 3.5}, {"businessID": "Fj5RosdsJV24ZT8S6X-nNQ", "name": "Om Wok", "cuisine": ["himalayan", "indian", "chinese"], "location": "89-17 Northern Blvd, Jackson Heights, NY 11372", "zip_code": "11372", "coordinates": {"latitude": 40.7565331, "longitude": -73.8782364}, "phone": "(718) 639-8800", "review_count": 54, "rating": 3.5}, {"businessID": "GJZnf3B-ADjlCV1NXsHvGQ", "name": "Tang's Garden", "cuisine": ["chinese", "chicken_wings"], "location": "1328 3rd Ave, New York, NY 10021", "zip_code": "10021", "coordinates": {"latitude": 40.7722574, "longitude": -73.9589547}, "phone": "(212) 249-2102", "review_count": 95, "rating": 3.0}, {"businessID": "ezh0BG1qWKKLJa99gb-XzQ", "name": "Spice Spirit", "cuisine": ["szechuan", "asianfusion", "chinese"], "location": "900 Bergen Ave, Jersey City, NJ 07306", "zip_code": "07306", "coordinates": {"latitude": 40.7299773848248, "longitude": -74.0650781984882}, "phone": "(201) 656-3866", "review_count": 43, "rating": 4.5}, {"businessID": "5FbVGhTO8U4wh0AATsN9tA", "name": "Wan's Garden", "cuisine": ["chinese"], "location": "6826 Forest Ave, Ridgewood, NY 11385", "zip_code": "11385", "coordinates": {"latitude": 40.702864, "longitude": -73.901421}, "phone": "(718) 381-1176", "review_count": 25, "rating": 4.0}, {"businessID": "PBh9J_5HF8dtg2MTTUqVnw", "name": "Autumn Asian Restaurant", "cuisine": ["chinese", "asianfusion"], "location": "349 Flatbush Ave, Brooklyn, NY 11238", "zip_code": "11238", "coordinates": {"latitude": 40.677148, "longitude": -73.9721409}, "phone": "(718) 789-0943", "review_count": 42, "rating": 3.5}, {"businessID": "poECelUuZjcM6xSlYjqxbw", "name": "China Delight", "cuisine": ["chinese"], "location": "4009 5th Ave, Brooklyn, NY 11232", "zip_code": "11232", "coordinates": {"latitude": 40.65043, "longitude": -74.0045899}, "phone": "(718) 871-7888", "review_count": 44, "rating": 3.5}, {"businessID": "CWJFr6vB_KXqaEg4iEW0zw", "name": "369 BBQ", "cuisine": ["foodtrucks", "chinese"], "location": "61st St & 8th Ave, Brooklyn, NY 11220", "zip_code": "11220", "coordinates": {"latitude": 40.6431892770919, "longitude": -74.0207152946295}, "phone": "(646) 508-1858", "review_count": 21, "rating": 4.0}, {"businessID": "9AL3VA_4H_PMw0GPriIGQw", "name": "Tangra", "cuisine": ["chinese", "indian", "seafood"], "location": "103 Lexington Ave, New York, NY 10016", "zip_code": "10016", "coordinates": {"latitude": 40.7421999, "longitude": -73.98262}, "phone": "(212) 889-8818", "review_count": 43, "rating": 3.5}, {"businessID": "7QMABbdgA5o0PVq8anr2mg", "name": "Golden Dynasty Restaurant", "cuisine": ["chinese"], "location": "6316 Bay Pkwy, Brooklyn, NY 11204", "zip_code": "11204", "coordinates": {"latitude": 40.61483, "longitude": -73.98086}, "phone": "(718) 837-0366", "review_count": 20, "rating": 4.5}, {"businessID": "JAC3_9kPdF0TFVBt3gYQVA", "name": "Broadway Chinese Seafood", "cuisine": ["dimsum", "seafood", "chinese"], "location": "83-17 Broadway, Elmhurst, NY 11373", "zip_code": "11373", "coordinates": {"latitude": 40.74093, "longitude": -73.87931}, "phone": "(718) 504-3668", "review_count": 99, "rating": 3.0}, {"businessID": "OWALknbRruLyO8KFPATf_Q", "name": "New Jin Shing", "cuisine": ["chinese"], "location": "1794 Broadway, Brooklyn, NY 11207", "zip_code": "11207", "coordinates": {"latitude": 40.682073, "longitude": -73.909389}, "phone": "(718) 919-9559", "review_count": 31, "rating": 4.0}, {"businessID": "Q29wPbgiFkYDifXoCpXwqw", "name": "Trini Breakfast Shed II", "cuisine": ["trinidadian", "chinese"], "location": "3209 Church Ave, Brooklyn, NY 11226", "zip_code": "11226", "coordinates": {"latitude": 40.65113, "longitude": -73.947311}, "phone": "(718) 282-2646", "review_count": 29, "rating": 4.0}, {"businessID": "GCcJqfBm3Fq-ccYwit6xcw", "name": "Asian Taste", "cuisine": ["chinese"], "location": "199 E 3rd St, New York, NY 10009", "zip_code": "10009", "coordinates": {"latitude": 40.7228795731505, "longitude": -73.9829911834261}, "phone": "(646) 596-9595", "review_count": 11, "rating": 4.5}, {"businessID": "LrFnMmjirO9jtyo0tTdfVg", "name": "Taste of Shanghai", "cuisine": ["shanghainese", "chinese"], "location": "42 Mott St, New York, NY 10013", "zip_code": "10013", "coordinates": {"latitude": 40.715249679603, "longitude": -73.998610561094}, "phone": "(212) 693-0300", "review_count": 46, "rating": 3.0}, {"businessID": "f9_L7uj8IxUJXDvioHDXdw", "name": "Bay Parkway Cafe", "cuisine": ["chinese"], "location": "6812 Bay Pkwy, Brooklyn, NY 11204", "zip_code": "11204", "coordinates": {"latitude": 40.6120414733887, "longitude": -73.983757019043}, "phone": "(718) 232-8008", "review_count": 33, "rating": 3.5}, {"businessID": "i4cyV13lYIS4mcJKZW75cA", "name": "Food Sing", "cuisine": ["chinese"], "location": "172 Grand St, Brooklyn, NY 11211", "zip_code": "11211", "coordinates": {"latitude": 40.714324, "longitude": -73.961257}, "phone": "(718) 782-7596", "review_count": 46, "rating": 3.5}, {"businessID": "3rCA4ZFJoxCLosUB8CqlbQ", "name": "Six Happiness", "cuisine": ["chinese"], "location": "711 2nd Ave, New York, NY 10016", "zip_code": "10016", "coordinates": {"latitude": 40.7475499, "longitude": -73.97408}, "phone": "(212) 973-0885", "review_count": 112, "rating": 2.5}, {"businessID": "oD0mN9vXuc1gFRyw1CG-Pw", "name": "New China Wok Chinese Kitchen", "cuisine": ["chinese", "chicken_wings"], "location": "57 4th Ave, Brooklyn, NY 11217", "zip_code": "11217", "coordinates": {"latitude": 40.68257, "longitude": -73.97927}, "phone": "(718) 638-1898", "review_count": 23, "rating": 4.0}, {"businessID": "D-PPbfPcCNyKs7w0J4tMvQ", "name": "East Palace", "cuisine": ["chinese"], "location": "819 2nd Ave, New York, NY 10017", "zip_code": "10017", "coordinates": {"latitude": 40.7510528564453, "longitude": -73.9716644287109}, "phone": "(212) 949-7708", "review_count": 83, "rating": 3.0}, {"businessID": "tp0rIpu4IWnatFZHycozCg", "name": "Great Wall Chinese Take-Out Restaurant", "cuisine": ["chinese", "seafood"], "location": "6820 Fort Hamilton Pkwy, Brooklyn, NY 11219", "zip_code": "11219", "coordinates": {"latitude": 40.628952, "longitude": -74.012235}, "phone": "(718) 833-6961", "review_count": 11, "rating": 4.5}, {"businessID": "XH2CNWlLU2HXROsT5NkCmA", "name": "Panda Express", "cuisine": ["hotdogs", "chinese"], "location": "835 Third Ave, New York, NY 10022", "zip_code": "10022", "coordinates": {"latitude": 40.75624, "longitude": -73.97012}, "phone": "(212) 355-2821", "review_count": 99, "rating": 3.0}, {"businessID": "JDv_pfBjuaU3BR7GC6GxRQ", "name": "Yummy Yummy Chinese Restaurant", "cuisine": ["chinese"], "location": "5273 65th Pl, Maspeth, NY 11378", "zip_code": "11378", "coordinates": {"latitude": 40.7318717, "longitude": -73.8999307}, "phone": "(718) 898-7128", "review_count": 40, "rating": 3.5}, {"businessID": "0bM7u8ifFfXUnaybey3Yrg", "name": "Panda Express", "cuisine": ["chinese", "hotdogs"], "location": "423 Fulton St, Brooklyn, NY 11201", "zip_code": "11201", "coordinates": {"latitude": 40.6919, "longitude": -73.98809}, "phone": "(718) 246-3898", "review_count": 55, "rating": 3.0}, {"businessID": "-L_ArHSBcNlG5r0djuQ9Dw", "name": "Kamshing", "cuisine": ["chinese"], "location": "1608 Avenue H, Brooklyn, NY 11230", "zip_code": "11230", "coordinates": {"latitude": 40.62998, "longitude": -73.96099}, "phone": "(718) 421-5252", "review_count": 17, "rating": 4.5}, {"businessID": "sb4AmNQbSwoMgs0eYBbEXQ", "name": "New Forest Cafe", "cuisine": ["chinese", "hkcafe"], "location": "7617 New Utrecht Ave, Bensonhurst, NY 11214", "zip_code": "11214", "coordinates": {"latitude": 40.6144279270546, "longitude": -74.000391201673}, "phone": "(718) 331-8833", "review_count": 46, "rating": 3.5}, {"businessID": "GfLL6-n6UNZ07SEHfjeIgA", "name": "Mee Sum Cafe", "cuisine": ["dimsum", "cafes", "chinese"], "location": "26 Pell St, New York, NY 10013", "zip_code": "10013", "coordinates": {"latitude": 40.715045, "longitude": -73.998291}, "phone": "(212) 349-5260", "review_count": 28, "rating": 3.5}, {"businessID": "COwkSHioqJBh1m33uhzSCA", "name": "Mr Bing", "cuisine": ["streetvendors", "chinese"], "location": "8 W 46th St, New York, NY 10036", "zip_code": "10036", "coordinates": {"latitude": 40.756208, "longitude": -73.979713}, "phone": "(646) 476-9344", "review_count": 36, "rating": 3.5}, {"businessID": "-_fDmhClugYdfy19qcNQpw", "name": "Asian Taste", "cuisine": ["chinese", "japanese", "bbq"], "location": "718 5th Ave, Brooklyn, NY 11215", "zip_code": "11215", "coordinates": {"latitude": 40.660945, "longitude": -73.994533}, "phone": "(718) 788-5878", "review_count": 54, "rating": 3.0}, {"businessID": "Ja4MWGAyPw74Oy6HJ5RizA", "name": "Rickshaw Dumpling Truck", "cuisine": ["chinese", "foodstands"], "location": "66 Wall St, New York, NY 10004", "zip_code": "10004", "coordinates": {"latitude": 40.7058995, "longitude": -74.0083016}, "phone": "", "review_count": 142, "rating": 2.5}, {"businessID": "bzr6GEQyjpgbkhHAsYaljQ", "name": "Randy's Chinese Food", "cuisine": ["chinese"], "location": "1693 Putnam Ave, Ridgewood, NY 11385", "zip_code": "11385", "coordinates": {"latitude": 40.700336, "longitude": -73.906774}, "phone": "(718) 381-1198", "review_count": 49, "rating": 3.5}, {"businessID": "CgsvKB65PZrZV8AhnD-wnw", "name": "King Jade Garden", "cuisine": ["chinese", "thai", "seafood"], "location": "141 E 55th St, New York, NY 10022", "zip_code": "10022", "coordinates": {"latitude": 40.75947, "longitude": -73.96942}, "phone": "(212) 753-3900", "review_count": 21, "rating": 4.0}, {"businessID": "znB_ZvfFDJWjqYFzuGV8qg", "name": "Da Yu Hot Pot \u5927\u6e1d\u706b\u9505", "cuisine": ["chinese", "hotpot"], "location": "81 Bowery, New York, NY 10002", "zip_code": "10002", "coordinates": {"latitude": 40.716733, "longitude": -73.995379}, "phone": "(212) 966-1777", "review_count": 20, "rating": 4.0}, {"businessID": "7CVwzVYgNndEgWrFnVoQBA", "name": "Jianbing Company", "cuisine": ["shanghainese", "chinese"], "location": "445 Albee Square W, Brooklyn, NY 11201", "zip_code": "11201", "coordinates": {"latitude": 40.690879, "longitude": -73.982866}, "phone": "(929) 368-2763", "review_count": 48, "rating": 3.0}, {"businessID": "AbfZkSRMtiHE3naWrN-0Eg", "name": "Fei Ma", "cuisine": ["chinese"], "location": "79 Ave A, New York, NY 10009", "zip_code": "10009", "coordinates": {"latitude": 40.725114, "longitude": -73.9845239}, "phone": "(212) 673-3300", "review_count": 46, "rating": 3.5}, {"businessID": "01m-oqxaCifh0s0eU03bBg", "name": "Asia Express", "cuisine": ["chinese"], "location": "493 2nd Ave, New York, NY 10016", "zip_code": "10016", "coordinates": {"latitude": 40.74094, "longitude": -73.97891}, "phone": "(212) 686-9888", "review_count": 61, "rating": 3.0}, {"businessID": "YfJZBmm9tfW--W_WIGReqA", "name": "Baili Restaurant", "cuisine": ["chinese"], "location": "2728 Church Ave, Brooklyn, NY 11226", "zip_code": "11226", "coordinates": {"latitude": 40.65047, "longitude": -73.951484}, "phone": "(718) 287-5599", "review_count": 28, "rating": 4.0}, {"businessID": "rk8V5c1Wr5gVLKOaY0g4VQ", "name": "Farmers Restaurant", "cuisine": ["chinese"], "location": "1692 86th St, Brooklyn, NY 11214", "zip_code": "11214", "coordinates": {"latitude": 40.60855, "longitude": -74.0053}, "phone": "(718) 236-8883", "review_count": 69, "rating": 3.0}, {"businessID": "ZXFRBp7Y_I32TeOXQqS01w", "name": "E Dim Sum", "cuisine": ["dimsum", "chinese"], "location": "2006 65th Street Brooklyn Ny 11204, New York, NY 11204", "zip_code": "11204", "coordinates": {"latitude": 40.61622, "longitude": -73.98566}, "phone": "(917) 443-3160", "review_count": 12, "rating": 4.5}, {"businessID": "_F3jmjLn3PrOGNz7RuMPnw", "name": "Max Bakery and Restaurant", "cuisine": ["bakeries", "chinese", "bubbletea"], "location": "37-63 90th St, Jackson Heights, NY 11372", "zip_code": "11372", "coordinates": {"latitude": 40.7507795280278, "longitude": -73.8767307208374}, "phone": "(347) 986-6651", "review_count": 16, "rating": 4.0}, {"businessID": "XjPfgkSP-RDEkq_ox8fE3A", "name": "King's Chef", "cuisine": ["chinese"], "location": "4311 28th Ave, Astoria, NY 11103", "zip_code": "11103", "coordinates": {"latitude": 40.764358, "longitude": -73.910705}, "phone": "(718) 274-6666", "review_count": 48, "rating": 3.5}, {"businessID": "ziwipi8JK_ik4mLaw1fTGw", "name": "Kam-Wei Kitchen", "cuisine": ["chinese"], "location": "630 10th Ave, New York, NY 10036", "zip_code": "10036", "coordinates": {"latitude": 40.76128, "longitude": -73.99392}, "phone": "(212) 459-9859", "review_count": 36, "rating": 3.5}, {"businessID": "Jr8S-deYDqbDoo-eJI7nyg", "name": "Empire Szechuan Garden", "cuisine": ["chinese"], "location": "4342 46th St, Sunnyside, NY 11104", "zip_code": "11104", "coordinates": {"latitude": 40.7442226, "longitude": -73.9186565}, "phone": "(718) 361-9625", "review_count": 41, "rating": 3.5}, {"businessID": "flmNwrxQfYNvWp7_-fZyDg", "name": "Tack's Chinese Take Out", "cuisine": ["chinese"], "location": "11C Holden Blvd, Staten Island, NY 10314", "zip_code": "10314", "coordinates": {"latitude": 40.60462, "longitude": -74.12123}, "phone": "(718) 983-9854", "review_count": 63, "rating": 3.5}, {"businessID": "2DlAPX4KBG8e7veOWYR6DQ", "name": "New Hardee Chinese Restaurant", "cuisine": ["chinese"], "location": "835 Dekalb Ave, Brooklyn, NY 11221", "zip_code": "11221", "coordinates": {"latitude": 40.69244, "longitude": -73.94299}, "phone": "(718) 384-0338", "review_count": 27, "rating": 3.5}, {"businessID": "S5VOBkNy0_yTG4SgZ2751g", "name": "Dumpling D\u2019Or", "cuisine": ["bubbletea", "panasian", "chinese"], "location": "25-15 Queens Plz N, Fl 2, Long Island City, NY 11101", "zip_code": "11101", "coordinates": {"latitude": 40.7509344, "longitude": -73.9393073}, "phone": "(347) 649-1100", "review_count": 31, "rating": 3.5}, {"businessID": "K_gq_5HLN3bDIZlFgnrRsA", "name": "Dumpling Cafe", "cuisine": ["chinese"], "location": "861 Grand St, Brooklyn, NY 11211", "zip_code": "11211", "coordinates": {"latitude": 40.71239, "longitude": -73.93943}, "phone": "(718) 302-8888", "review_count": 27, "rating": 3.5}, {"businessID": "6t22uVBh30DFT88rQ5e95A", "name": "Xing Wong BBQ", "cuisine": ["chinese"], "location": "89 E Broadway, New York, NY 10002", "zip_code": "10002", "coordinates": {"latitude": 40.7135461657203, "longitude": -73.9935723692179}, "phone": "(212) 779-8899", "review_count": 36, "rating": 3.5}, {"businessID": "FnWeS2HRGvDimOHMHRHOsw", "name": "Number 1 Chinese Restaurant", "cuisine": ["chinese"], "location": "6308 Broadway, Woodside, NY 11377", "zip_code": "11377", "coordinates": {"latitude": 40.74965, "longitude": -73.89898}, "phone": "(718) 651-6571", "review_count": 38, "rating": 3.5}, {"businessID": "EssS0hygX61hQNZXOLKaDA", "name": "Fine Bakery City", "cuisine": ["bakeries", "dimsum", "chinese"], "location": "303 Grand St, New York, NY 10002", "zip_code": "10002", "coordinates": {"latitude": 40.71733, "longitude": -73.99182}, "phone": "(212) 966-3318", "review_count": 33, "rating": 3.5}, {"businessID": "eUFzb1iKTBlc-ScxSW6NCw", "name": "China Kettle", "cuisine": ["chinese"], "location": "6606 Ave U, Brooklyn, NY 11234", "zip_code": "11234", "coordinates": {"latitude": 40.6173427, "longitude": -73.9106508}, "phone": "(718) 763-7020", "review_count": 36, "rating": 3.5}, {"businessID": "jMDVUAFawFCMkP3pAaIjpQ", "name": "Golden Steamer Restaurant", "cuisine": ["dimsum", "chinese"], "location": "1964 86th St, Bath Beach, NY 11214", "zip_code": "11214", "coordinates": {"latitude": 40.60484, "longitude": -73.9989499}, "phone": "(718) 996-7888", "review_count": 15, "rating": 4.5}, {"businessID": "1jtNrYktZpxCIXCc_1HsAA", "name": "Palacio Chino", "cuisine": ["chinese", "latin"], "location": "5621 5th Ave, Brooklyn, NY 11220", "zip_code": "11220", "coordinates": {"latitude": 40.64124, "longitude": -74.01414}, "phone": "(718) 439-9141", "review_count": 30, "rating": 3.5}, {"businessID": "OX2B4KARPKNTxC39wpcqDA", "name": "A & C Kitchen", "cuisine": ["chinese"], "location": "136 Avenue C, Ste A, New York, NY 10009", "zip_code": "10009", "coordinates": {"latitude": 40.72501, "longitude": -73.978}, "phone": "(212) 677-8112", "review_count": 33, "rating": 3.5}, {"businessID": "XzMVQtnifzlFoq6Uj4795g", "name": "A Shen Zhou Restaurant", "cuisine": ["chinese"], "location": "159 Wilson Ave, Brooklyn, NY 11237", "zip_code": "11237", "coordinates": {"latitude": 40.70026, "longitude": -73.92469}, "phone": "(718) 821-1172", "review_count": 58, "rating": 3.0}, {"businessID": "yUVcpgecpq1qncpa1x34Hg", "name": "Golden City Seafood Restaurant", "cuisine": ["chinese"], "location": "6418 20th Ave, Brooklyn, NY 11204", "zip_code": "11204", "coordinates": {"latitude": 40.61683, "longitude": -73.98575}, "phone": "", "review_count": 54, "rating": 3.0}, {"businessID": "LpfsAZ7mBmK1om17S477zA", "name": "Zhen Good Taste", "cuisine": ["chinese"], "location": "5961 69th St, Maspeth, NY 11378", "zip_code": "11378", "coordinates": {"latitude": 40.72182, "longitude": -73.89278}, "phone": "(718) 779-2996", "review_count": 31, "rating": 3.5}, {"businessID": "BUB1ej9y5RBseuy5VyOpxw", "name": "Chang Wang Restaurant", "cuisine": ["chinese"], "location": "38A Allen St, New York, NY 10002", "zip_code": "10002", "coordinates": {"latitude": 40.71599, "longitude": -73.99175}, "phone": "(212) 343-2373", "review_count": 24, "rating": 3.5}, {"businessID": "Ge9wqsI72Mvk375CPvXurw", "name": "Mr. Khao Man Gai", "cuisine": ["thai", "hainan", "foodtrucks", "chinese"], "location": "73rd St & Roosevelt Avenue, Jackson heights, NY 11372", "zip_code": "11372", "coordinates": {"latitude": 40.7467196, "longitude": -73.8923393}, "phone": "", "review_count": 13, "rating": 4.5}, {"businessID": "BJi6fX-mObaJ3N75v6mwaQ", "name": "Restaurant On 58 St", "cuisine": ["seafood", "cantonese", "chinese"], "location": "773 58th St, Brooklyn, NY 11220", "zip_code": "11220", "coordinates": {"latitude": 40.637012, "longitude": -74.00853}, "phone": "(718) 833-3899", "review_count": 21, "rating": 4.0}, {"businessID": "JRSAnPCs3jgiRVvE9j2S7g", "name": "J East", "cuisine": ["chinese"], "location": "175 3rd Ave, New York, NY 10003", "zip_code": "10003", "coordinates": {"latitude": 40.7347899, "longitude": -73.98587}, "phone": "(212) 529-8818", "review_count": 64, "rating": 3.0}, {"businessID": "k_y6o8zqI3cODdKABwWZ9g", "name": "China Garden", "cuisine": ["chinese"], "location": "133 Irving Ave, Brooklyn, NY 11237", "zip_code": "11237", "coordinates": {"latitude": 40.703364, "longitude": -73.921517}, "phone": "(718) 418-2888", "review_count": 10, "rating": 5.0}, {"businessID": "a5Ei7GYvlXCDv-j3q1lBLg", "name": "China Delight", "cuisine": ["chinese"], "location": "722 4th Ave, Brooklyn, NY 11232", "zip_code": "11232", "coordinates": {"latitude": 40.661844, "longitude": -73.996885}, "phone": "(718) 788-0888", "review_count": 17, "rating": 4.0}, {"businessID": "jY24wzoHi-DSHYSybWao7w", "name": "Ting Hua New Kitchen", "cuisine": ["chinese"], "location": "351 Smith St, Brooklyn, NY 11231", "zip_code": "11231", "coordinates": {"latitude": 40.679817, "longitude": -73.99488}, "phone": "(718) 852-6287", "review_count": 46, "rating": 3.0}, {"businessID": "pNbrxyrG5d5QwRsKbu0cXg", "name": "46", "cuisine": ["desserts", "chinese"], "location": "46 Mott St, New York, NY 10013", "zip_code": "10013", "coordinates": {"latitude": 40.7152930293439, "longitude": -73.9986442157158}, "phone": "(646) 715-6699", "review_count": 22, "rating": 3.5}, {"businessID": "ZYWwYSXWyDlVYIjPgXmIQA", "name": "East Garden", "cuisine": ["chinese"], "location": "32-10 36th Ave, Astoria, NY 11106", "zip_code": "11106", "coordinates": {"latitude": 40.7560263, "longitude": -73.9285962}, "phone": "(718) 729-1188", "review_count": 44, "rating": 3.5}, {"businessID": "7yi9uA-LmrGpG6OOuK2byg", "name": "Hong Kong Chinese Restaurant", "cuisine": ["chinese"], "location": "6297 Forest Ave, Ridgewood, NY 11385", "zip_code": "11385", "coordinates": {"latitude": 40.710983, "longitude": -73.904869}, "phone": "(718) 628-0888", "review_count": 22, "rating": 4.0}, {"businessID": "z6HMM_cSraJFkQFvSjWGDA", "name": "Lucky Chinese Restaurant", "cuisine": ["chinese"], "location": "5008 69th St, Woodside, NY 11377", "zip_code": "11377", "coordinates": {"latitude": 40.7367175, "longitude": -73.8960949}, "phone": "(718) 779-1350", "review_count": 20, "rating": 4.0}, {"businessID": "8SM-aKKwlK8JNaJTr60c6Q", "name": "East Met West", "cuisine": ["chinese"], "location": "752 Metropolitan Ave, Brooklyn, NY 11211", "zip_code": "11211", "coordinates": {"latitude": 40.71446, "longitude": -73.94392}, "phone": "(718) 218-7777", "review_count": 48, "rating": 3.0}, {"businessID": "Nxxn3PfmNvEtKCn_OSwY8A", "name": "King Szechuan Palace", "cuisine": ["szechuan", "chinese"], "location": "83 Reservoir Ave, Jersey City, NJ 07307", "zip_code": "07307", "coordinates": {"latitude": 40.739697, "longitude": -74.051612}, "phone": "(201) 222-6888", "review_count": 117, "rating": 3.5}, {"businessID": "WVsPyl-DGRu0O_rQYdIMVQ", "name": "The Best Sichuan", "cuisine": ["szechuan", "chinese"], "location": "47 W 39th St, New York, NY 10018", "zip_code": "10018", "coordinates": {"latitude": 40.75266, "longitude": -73.98459}, "phone": "(212) 889-0980", "review_count": 21, "rating": 4.0}, {"businessID": "KEWIhmU2R2kZH3BtARkWlg", "name": "Nuan Xin Rice Roll", "cuisine": ["chinese"], "location": "67A Eldridge St, New York, NY 10002", "zip_code": "10002", "coordinates": {"latitude": 40.71662, "longitude": -73.99286}, "phone": "(212) 920-0156", "review_count": 12, "rating": 4.5}, {"businessID": "Ex_qolTE5syJ8so0NscfGw", "name": "King Wah", "cuisine": ["chinese"], "location": "21-04 Newtown Ave, Astoria, NY 11102", "zip_code": "11102", "coordinates": {"latitude": 40.7719699594225, "longitude": -73.9257651953376}, "phone": "(718) 545-7000", "review_count": 44, "rating": 3.5}, {"businessID": "xeJP91WQEqQlW7dV38K2ZA", "name": "Sun Luck Kitchen", "cuisine": ["chinese", "seafood"], "location": "197 5th Ave, Brooklyn, NY 11217", "zip_code": "11217", "coordinates": {"latitude": 40.676628112793, "longitude": -73.9800262451172}, "phone": "(718) 789-4439", "review_count": 55, "rating": 3.0}, {"businessID": "N05331bMRnUwz48pRRvD7g", "name": "Eden Wok", "cuisine": ["chinese", "sushi", "kosher"], "location": "43 E 34th St, New York, NY 10016", "zip_code": "10016", "coordinates": {"latitude": 40.7477, "longitude": -73.98239}, "phone": "(212) 725-8100", "review_count": 119, "rating": 2.5}, {"businessID": "Cyv-tW4BljwWnP16HI_zAg", "name": "Taste Kitchen", "cuisine": ["chinese"], "location": "316 W 36th St, New York, NY 10018", "zip_code": "10018", "coordinates": {"latitude": 40.75374, "longitude": -73.99342}, "phone": "(646) 666-0531", "review_count": 40, "rating": 3.5}, {"businessID": "yuXmo3XGH_G-wY7g3gpeAg", "name": "Wing Hua", "cuisine": ["chinese"], "location": "508 Court St, Brooklyn, NY 11231", "zip_code": "11231", "coordinates": {"latitude": 40.676475, "longitude": -73.999031}, "phone": "(718) 855-8797", "review_count": 37, "rating": 3.5}, {"businessID": "h3yz3w8ke1jIaGnqGln93A", "name": "Sun Wah Restaurant", "cuisine": ["chinese"], "location": "3016 36th Ave, Astoria, NY 11106", "zip_code": "11106", "coordinates": {"latitude": 40.756608, "longitude": -73.930066}, "phone": "(718) 937-5212", "review_count": 42, "rating": 3.5}, {"businessID": "h4co9O0SLuvhTtr_Cs9IIQ", "name": "New Kam Lai", "cuisine": ["chinese"], "location": "890 Amsterdam Ave, New York, NY 10025", "zip_code": "10025", "coordinates": {"latitude": 40.7989112, "longitude": -73.967015}, "phone": "(212) 749-8388", "review_count": 29, "rating": 4.0}, {"businessID": "NpIYZAo55GDnIxwkkh6Q7g", "name": "Double Ben Cafe", "cuisine": ["cantonese", "breakfast_brunch", "chinese"], "location": "7901 17th Ave, Brooklyn, NY 11214", "zip_code": "11214", "coordinates": {"latitude": 40.6124093471076, "longitude": -74.0006901605041}, "phone": "(347) 554-8237", "review_count": 15, "rating": 4.0}, {"businessID": "Ej-hrhc8HFWfijN4X5akOg", "name": "Dim Sum Palace", "cuisine": ["dimsum", "chinese"], "location": "33 W 33rd St, New York, NY 10001", "zip_code": "10001", "coordinates": {"latitude": 40.7486, "longitude": -73.98676}, "phone": "(646) 649-3607", "review_count": 25, "rating": 4.0}, {"businessID": "GTVPC-4dLsJpRr57J3V6NQ", "name": "Bamboo Garden", "cuisine": ["caribbean", "chinese"], "location": "9505 Avenue L, Brooklyn, NY 11236", "zip_code": "11236", "coordinates": {"latitude": 40.637911, "longitude": -73.8967062}, "phone": "(718) 272-3175", "review_count": 48, "rating": 3.5}, {"businessID": "SXH-A8k7t7C_lmzzVdWQTg", "name": "Golden Palace", "cuisine": ["dimsum", "seafood", "chinese"], "location": "1619 86th St, Brooklyn, NY 11214", "zip_code": "11214", "coordinates": {"latitude": 40.6099450232105, "longitude": -74.006646797061}, "phone": "(718) 500-3188", "review_count": 66, "rating": 3.0}, {"businessID": "-edCxB-9khQrBsqXNcBg1A", "name": "Ke Lai Le", "cuisine": ["japanese", "chinese", "thai"], "location": "791A Washington Ave, Brooklyn, NY 11238", "zip_code": "11238", "coordinates": {"latitude": 40.6728499, "longitude": -73.96265}, "phone": "(718) 399-7999", "review_count": 106, "rating": 2.5}, {"businessID": "Xl0JBlbr-D4aICTMcYi5TA", "name": "Hana Noodle Station", "cuisine": ["noodles", "chinese"], "location": "408 Albee Square W, Dekalb Market Hall, Brooklyn, NY 11201", "zip_code": "11201", "coordinates": {"latitude": 40.691301, "longitude": -73.982538}, "phone": "", "review_count": 56, "rating": 3.0}, {"businessID": "hjlvKeRTHA5mh1dNX4yM-w", "name": "Nb Wing Wong", "cuisine": ["cantonese", "chinese"], "location": "42 Bowery, New York, NY 10013", "zip_code": "10013", "coordinates": {"latitude": 40.71554, "longitude": -73.99672}, "phone": "", "review_count": 8, "rating": 4.5}, {"businessID": "cZ2Nkl7Z_sCvanOoruvxHQ", "name": "Panda Express", "cuisine": ["chinese", "hotdogs"], "location": "663 Ninth Ave, New York, NY 10036", "zip_code": "10036", "coordinates": {"latitude": 40.760996, "longitude": -73.991116}, "phone": "(212) 969-9289", "review_count": 77, "rating": 3.0}, {"businessID": "z80hV_2lH5J6LjiXVNXwGA", "name": "Broadway Snacks", "cuisine": ["chinese", "noodles"], "location": "8610 Justice Ave, Elmhurst, NY 11373", "zip_code": "11373", "coordinates": {"latitude": 40.7375843127452, "longitude": -73.8767195327492}, "phone": "(917) 244-9852", "review_count": 21, "rating": 4.0}, {"businessID": "pmJqb7-EckluXUk6Rtml6A", "name": "Hunan Park", "cuisine": ["chinese", "sushi", "japanese"], "location": "721 Columbus Ave, New York, NY 10025", "zip_code": "10025", "coordinates": {"latitude": 40.79221, "longitude": -73.96774}, "phone": "(212) 222-6511", "review_count": 87, "rating": 3.0}, {"businessID": "ApjmgPwYXgrb0JurjQZO4w", "name": "Fortune Cookie Chinese Kitchen", "cuisine": ["chinese"], "location": "611 Manhattan Ave, Brooklyn, NY 11222", "zip_code": "11222", "coordinates": {"latitude": 40.72338, "longitude": -73.9507}, "phone": "(718) 389-7103", "review_count": 46, "rating": 3.0}, {"businessID": "HM6cvh5A9LLBeb4Sca6fPA", "name": "Ten Full Restaurant", "cuisine": ["chinese"], "location": "39-49 48th Ave, Sunnyside, NY 11104", "zip_code": "11104", "coordinates": {"latitude": 40.74018, "longitude": -73.92511}, "phone": "(718) 361-8838", "review_count": 62, "rating": 3.0}, {"businessID": "d8wA3iuWvrs1slX1WHSV5g", "name": "King Wah", "cuisine": ["cantonese", "szechuan", "chinese"], "location": "6911 Northern Blvd, Woodside, NY 11377", "zip_code": "11377", "coordinates": {"latitude": 40.754592, "longitude": -73.89701}, "phone": "(718) 651-8080", "review_count": 37, "rating": 3.5}, {"businessID": "zPMSuQJRpXi11G_Tqv1LJQ", "name": "Mr. Wonton", "cuisine": ["chinese"], "location": "78-05 Jamaica Ave, Woodhaven, NY 11421", "zip_code": "11421", "coordinates": {"latitude": 40.6919899, "longitude": -73.8639984}, "phone": "(718) 296-3800", "review_count": 23, "rating": 4.0}, {"businessID": "nAcVK-Y1_ojsRF_04o-x-A", "name": "Yin Ji Chang Fen Rice Roll", "cuisine": ["breakfast_brunch", "dimsum", "cantonese", "chinese"], "location": "91 Bayard St, New York, NY 10013", "zip_code": "10013", "coordinates": {"latitude": 40.71583, "longitude": -73.999336}, "phone": "(212) 227-4888", "review_count": 31, "rating": 4.0}, {"businessID": "cDHOpwHBY32eUNfanjj7Lg", "name": "Lucky Lee's", "cuisine": ["chinese", "gluten_free"], "location": "67 University Pl, New York, NY 10003", "zip_code": "10003", "coordinates": {"latitude": 40.73292, "longitude": -73.99347}, "phone": "(646) 779-7179", "review_count": 74, "rating": 3.0}, {"businessID": "_f6jjUliJY8IVrgkcgG_zw", "name": "Lee Good Taste", "cuisine": ["chinese"], "location": "2686 Pitkin Ave, Brooklyn, NY 11208", "zip_code": "11208", "coordinates": {"latitude": 40.6751870148044, "longitude": -73.8729380071163}, "phone": "(718) 348-0538", "review_count": 13, "rating": 4.5}, {"businessID": "JbAdL2vOd-8O_Xa2wRktug", "name": "New Hong Wong Seafood Restaurant", "cuisine": ["chinese"], "location": "100 Bowery, New York, NY 10013", "zip_code": "10013", "coordinates": {"latitude": 40.717796, "longitude": -73.995498}, "phone": "(212) 226-8778", "review_count": 27, "rating": 3.5}, {"businessID": "j0tkph2po_37gtZ1ufxiow", "name": "Golden House", "cuisine": ["chinese"], "location": "3512 30th Ave, Astoria, NY 11103", "zip_code": "11103", "coordinates": {"latitude": 40.76497, "longitude": -73.91789}, "phone": "(718) 545-0101", "review_count": 86, "rating": 2.5}, {"businessID": "hDrPCldN8HJoQfK2a6t_uA", "name": "403 Restaurant", "cuisine": ["mexican", "chinese"], "location": "403 Church Ave, Brooklyn, NY 11218", "zip_code": "11218", "coordinates": {"latitude": 40.644306, "longitude": -73.976409}, "phone": "(718) 851-0403", "review_count": 20, "rating": 4.0}, {"businessID": "Vd2lWwWkJTN5317-sCiDTg", "name": "Future Restaurant", "cuisine": ["chinese"], "location": "216 Newark Ave, Jersey City, NJ 07302", "zip_code": "07302", "coordinates": {"latitude": 40.72214, "longitude": -74.0468999}, "phone": "(201) 420-3351", "review_count": 105, "rating": 3.5}, {"businessID": "00J0yKkOuOxMhqt-Dg9daw", "name": "Panda Express", "cuisine": ["chinese", "hotdogs"], "location": "414 Eighth Ave, New York, NY 10001", "zip_code": "10001", "coordinates": {"latitude": 40.7501065718521, "longitude": -73.9948594942689}, "phone": "(917) 639-3302", "review_count": 63, "rating": 3.0}, {"businessID": "hWkbadE0u-Eiqg9SAm176Q", "name": "Our Place China Chalet", "cuisine": ["chinese"], "location": "242 E 79th St, New York, NY 10075", "zip_code": "10075", "coordinates": {"latitude": 40.7733383, "longitude": -73.9558029}, "phone": "(212) 288-4888", "review_count": 62, "rating": 3.0}, {"businessID": "UyBbMNIM7zA3fh6lEnLiZQ", "name": "Annie 88 Express", "cuisine": ["chinese"], "location": "880 Nostrand Ave, Brooklyn, NY 11225", "zip_code": "11225", "coordinates": {"latitude": 40.667897, "longitude": -73.95103}, "phone": "(718) 363-8383", "review_count": 27, "rating": 3.5}, {"businessID": "k34VgKhpuIRPEr8vKSMwjA", "name": "Chung Chun Kitchen", "cuisine": ["chinese"], "location": "338 Myrtle Ave, Brooklyn, NY 11205", "zip_code": "11205", "coordinates": {"latitude": 40.69314, "longitude": -73.973}, "phone": "(718) 855-2119", "review_count": 20, "rating": 4.0}, {"businessID": "EV2grf7NhNHQTmBXfu1-NA", "name": "Dragon Gate Chinese Cuisine", "cuisine": ["chinese"], "location": "1944 37th St, Astoria, NY 11105", "zip_code": "11105", "coordinates": {"latitude": 40.778622, "longitude": -73.9026148701016}, "phone": "(718) 278-0799", "review_count": 22, "rating": 4.0}, {"businessID": "3DmJv5rHFNyQykaUiXBOvA", "name": "Hop Lee Kitchen", "cuisine": ["chinese"], "location": "992 Manhattan Ave, Brooklyn, NY 11222", "zip_code": "11222", "coordinates": {"latitude": 40.7329099, "longitude": -73.95455}, "phone": "(718) 389-4756", "review_count": 39, "rating": 3.5}, {"businessID": "J4x8WRUAoG7HKiGMjFGPvQ", "name": "Dumpling Town", "cuisine": ["chinese"], "location": "86-55 Broadway, Elmhurst, NY 11373", "zip_code": "11373", "coordinates": {"latitude": 40.7373229, "longitude": -73.8771249}, "phone": "", "review_count": 21, "rating": 4.0}, {"businessID": "eQKYZWnBjPUjINAnFmrmbA", "name": "P.F. Chang's", "cuisine": ["chinese", "asianfusion", "gluten_free"], "location": "10 Port Imperial Blvd, West New York, NJ 07093", "zip_code": "07093", "coordinates": {"latitude": 40.7802677928232, "longitude": -74.0095958081818}, "phone": "(201) 866-7790", "review_count": 432, "rating": 3.0}, {"businessID": "uPqLa_H1tr3QTwJNPoVqYQ", "name": "Spring Garden", "cuisine": ["chinese"], "location": "8706 5th Ave, Brooklyn, NY 11209", "zip_code": "11209", "coordinates": {"latitude": 40.62077, "longitude": -74.02703}, "phone": "(718) 921-5252", "review_count": 26, "rating": 3.5}, {"businessID": "I39S72G5LG9uyDz2cNWJcw", "name": "Mr Bing", "cuisine": ["chinese", "hotdogs"], "location": "152 W 28th St, New York, NY 10001", "zip_code": "10001", "coordinates": {"latitude": 40.74688, "longitude": -73.99275}, "phone": "(917) 596-8638", "review_count": 26, "rating": 3.5}, {"businessID": "wxUTM-FkpCvnoTGJfSXkWg", "name": "China King", "cuisine": ["chinese"], "location": "285 3rd Ave, New York, NY 10010", "zip_code": "10010", "coordinates": {"latitude": 40.738249, "longitude": -73.983329}, "phone": "(212) 725-9888", "review_count": 40, "rating": 3.0}, {"businessID": "PgiqzwIfcV2eruGmNx77lw", "name": "Joy Kitchen", "cuisine": ["chinese"], "location": "497 7th Ave, Brooklyn, NY 11215", "zip_code": "11215", "coordinates": {"latitude": 40.6614456176758, "longitude": -73.9857482910156}, "phone": "(718) 965-2874", "review_count": 37, "rating": 3.5}, {"businessID": "xd_8cHyPO8sjIV8JMojHnw", "name": "Red House", "cuisine": ["chinese"], "location": "203 E 14th St, New York, NY 10003", "zip_code": "10003", "coordinates": {"latitude": 40.7333221435547, "longitude": -73.9865036010742}, "phone": "(212) 228-8288", "review_count": 91, "rating": 2.5}, {"businessID": "YoGcGxo9JxE7NtmMtPaNng", "name": "Golden Wok", "cuisine": ["chinese"], "location": "4218 43rd Ave, Sunnyside, NY 11104", "zip_code": "11104", "coordinates": {"latitude": 40.745129, "longitude": -73.921549}, "phone": "(718) 392-2333", "review_count": 44, "rating": 3.0}, {"businessID": "wBDwFCpRQTwhP3QbGe3a5g", "name": "Good Brothers of Brooklyn", "cuisine": ["szechuan", "chinese"], "location": "6102 7th Ave, Brooklyn, NY 11220", "zip_code": "11220", "coordinates": {"latitude": 40.63628, "longitude": -74.012674}, "phone": "(718) 878-6550", "review_count": 35, "rating": 3.5}, {"businessID": "4LVWqBbPXy5Jyt4QlZ5OfA", "name": "You like fish", "cuisine": ["chinese", "seafood", "bbq"], "location": "6916 18th Ave, Brooklyn, NY 11204", "zip_code": "11204", "coordinates": {"latitude": 40.61656, "longitude": -73.99299}, "phone": "(347) 702-5643", "review_count": 17, "rating": 4.0}, {"businessID": "JDSHS13MmubKJg39xTBw-Q", "name": "Wan Zhong Wang", "cuisine": ["chinese"], "location": "773 60th St, Brooklyn, NY 11220", "zip_code": "11220", "coordinates": {"latitude": 40.6358932, "longitude": -74.0097623}, "phone": "(718) 680-8886", "review_count": 14, "rating": 4.0}, {"businessID": "E_V_pCjtbvdniE8ECOMg3Q", "name": "Great Wall Chinese Restaurant", "cuisine": ["chinese"], "location": "87-12 Astoria Blvd, East Elmhurst, NY 11369", "zip_code": "11369", "coordinates": {"latitude": 40.7638765, "longitude": -73.8816184}, "phone": "(718) 478-6433", "review_count": 20, "rating": 4.0}, {"businessID": "NLHHXy87krCnRGXkeLhmsw", "name": "Steamed Rice Rolls Cart", "cuisine": ["chinese"], "location": "250 Grand St, between Chrystie and Bowery, New York, NY 10002", "zip_code": "10002", "coordinates": {"latitude": 40.7183599, "longitude": -73.99395}, "phone": "", "review_count": 10, "rating": 4.5}, {"businessID": "IVjw3i_dIWbcVra6OPMKZQ", "name": "Grill Master\u2022Brooklyn", "cuisine": ["chinese", "bbq"], "location": "717 61st St, Brooklyn, NY 11220", "zip_code": "11220", "coordinates": {"latitude": 40.6359732, "longitude": -74.0116674}, "phone": "(716) 666-2008", "review_count": 24, "rating": 3.5}, {"businessID": "_hIxEP_Wd13cjNJ1tcf6KQ", "name": "Peking Express", "cuisine": ["chinese"], "location": "237 Nassau Ave, Brooklyn, NY 11222", "zip_code": "11222", "coordinates": {"latitude": 40.725869, "longitude": -73.94279}, "phone": "(718) 349-0968", "review_count": 32, "rating": 3.5}, {"businessID": "6uPtOyrxXV8y1y8pvLU2pA", "name": "Pic Up Stix", "cuisine": ["chinese"], "location": "1372 Lexington Ave, New York, NY 10128", "zip_code": "10128", "coordinates": {"latitude": 40.78259, "longitude": -73.95352}, "phone": "(212) 860-7600", "review_count": 63, "rating": 3.0}, {"businessID": "PUwrkoUztUYs4VdHlK9qBg", "name": "Wa Lung Kitchen", "cuisine": ["chinese"], "location": "557 Grand St, New York, NY 10002", "zip_code": "10002", "coordinates": {"latitude": 40.713919, "longitude": -73.980251}, "phone": "(212) 254-3775", "review_count": 61, "rating": 3.0}, {"businessID": "RQic4NVDNhCwJRCK-Rgp0w", "name": "Halal Kitchen", "cuisine": ["chinese", "halal"], "location": "7112 Grand Ave, Maspeth, NY 11378", "zip_code": "11378", "coordinates": {"latitude": 40.727802, "longitude": -73.891651}, "phone": "(718) 205-5360", "review_count": 44, "rating": 3.0}, {"businessID": "4fQuriJ0mFzzG6RE1cRV5A", "name": "Halal Kitchen", "cuisine": ["chinese", "halal"], "location": "4214 Greenpoint Ave, Sunnyside, NY 11104", "zip_code": "11104", "coordinates": {"latitude": 40.74051, "longitude": -73.92241}, "phone": "(718) 392-8688", "review_count": 31, "rating": 3.5}, {"businessID": "d6i6sGHtPmyUkHze5S1lIQ", "name": "Hunan House I", "cuisine": ["chinese"], "location": "382 Summit Ave, Jersey City, NJ 07306", "zip_code": "07306", "coordinates": {"latitude": 40.72857, "longitude": -74.06242}, "phone": "(201) 876-9908", "review_count": 31, "rating": 4.5}, {"businessID": "PwIMIWCzL7tlOVb-v0_RKw", "name": "Emperor House", "cuisine": ["chinese"], "location": "767 Forest Ave, Staten Island, NY 10310", "zip_code": "10310", "coordinates": {"latitude": 40.62925, "longitude": -74.11467}, "phone": "(718) 442-3507", "review_count": 19, "rating": 4.0}, {"businessID": "MEaT9f2B4F0gvXhCir9v4w", "name": "Chan Yang Garden", "cuisine": ["chinese"], "location": "479 Bergen St, Brooklyn, NY 11217", "zip_code": "11217", "coordinates": {"latitude": 40.680957, "longitude": -73.974586}, "phone": "(718) 398-3638", "review_count": 26, "rating": 3.5}, {"businessID": "eN7MYNtDzaMzk4WptrVw3A", "name": "Lucky Garden", "cuisine": ["chinese"], "location": "2460 Nostrand Ave, Brooklyn, NY 11210", "zip_code": "11210", "coordinates": {"latitude": 40.624759, "longitude": -73.946823}, "phone": "(718) 338-1666", "review_count": 23, "rating": 4.0}, {"businessID": "5YOAo1XEDUxGNN5SwaHyww", "name": "Ha Ha", "cuisine": ["chinese"], "location": "9212 4th Ave, Brooklyn, NY 11209", "zip_code": "11209", "coordinates": {"latitude": 40.6180175, "longitude": -74.0304925}, "phone": "(718) 833-8078", "review_count": 29, "rating": 3.5}, {"businessID": "Ckz_1t4nUoFf2Yw-uuK4jQ", "name": "Mr Chen", "cuisine": ["chinese"], "location": "5905 Myrtle Ave, Ridgewood, NY 11385", "zip_code": "11385", "coordinates": {"latitude": 40.70068, "longitude": -73.8999599}, "phone": "(718) 417-1008", "review_count": 63, "rating": 3.0}, {"businessID": "ECKMWJwm_sihRQIP1ydeOA", "name": "New Golden Chopstick Chinese Restaurant", "cuisine": ["chinese"], "location": "77 Pearl St, New York, NY 10004", "zip_code": "10004", "coordinates": {"latitude": 40.70404, "longitude": -74.01049}, "phone": "(212) 825-0314", "review_count": 36, "rating": 3.0}, {"businessID": "KUW8hx5kinOT_XJj3ttCDQ", "name": "Go Noodle Nine Moon", "cuisine": ["chinese", "noodles", "soup"], "location": "1069 1st Ave, New York, NY 10022", "zip_code": "10022", "coordinates": {"latitude": 40.75932, "longitude": -73.96254}, "phone": "(212) 888-6366", "review_count": 52, "rating": 3.0}, {"businessID": "gNS0joGKALsNXFqKmZuurg", "name": "Ocean Dragon", "cuisine": ["chinese", "thai"], "location": "877 10th Ave, New York, NY 10019", "zip_code": "10019", "coordinates": {"latitude": 40.7694396972656, "longitude": -73.9886703491211}, "phone": "(212) 245-7210", "review_count": 72, "rating": 3.0}, {"businessID": "vWEdeCMkv93KzVzjKqdvBw", "name": "New Sing Sheng Kitchen", "cuisine": ["chinese"], "location": "89-05-07 37th Ave, New York, NY 11372", "zip_code": "11372", "coordinates": {"latitude": 40.74896, "longitude": -73.89175}, "phone": "(718) 651-9110", "review_count": 19, "rating": 4.0}, {"businessID": "4W26jwklGZblk6ZEyedyIQ", "name": "Lee Chung Cafe", "cuisine": ["coffee", "chinese"], "location": "82 Madison St, New York, NY 10002", "zip_code": "10002", "coordinates": {"latitude": 40.711925, "longitude": -73.996322}, "phone": "(212) 233-5142", "review_count": 17, "rating": 4.0}, {"businessID": "dSZH0XgoZ-AT0qezA9Xx-g", "name": "King's Wok", "cuisine": ["chinese"], "location": "4912 30th Ave, Woodside, NY 11377", "zip_code": "11377", "coordinates": {"latitude": 40.76005, "longitude": -73.90741}, "phone": "(718) 726-5213", "review_count": 21, "rating": 3.5}, {"businessID": "W3XmpomxgjrVjrAE_Z55ow", "name": "6321 Yuan Bao", "cuisine": ["chinese"], "location": "6321 8th Ave, Brooklyn, NY 11220", "zip_code": "11220", "coordinates": {"latitude": 40.633392476124, "longitude": -74.0116887655261}, "phone": "(718) 836-1663", "review_count": 13, "rating": 4.0}, {"businessID": "k_vsZU3Ba-fX0oXC-iO-GQ", "name": "Wei Mei Xian", "cuisine": ["chinese"], "location": "705 60th St, Brooklyn, NY 11220", "zip_code": "11220", "coordinates": {"latitude": 40.63683, "longitude": -74.01145}, "phone": "(718) 439-5278", "review_count": 13, "rating": 4.0}, {"businessID": "VG0XPr9jSrgd8p5WPD1HaQ", "name": "Ollies To Go", "cuisine": ["chinese", "japanese", "bubbletea"], "location": "307 E 77th St, New York, NY 10075", "zip_code": "10075", "coordinates": {"latitude": 40.771918, "longitude": -73.955451}, "phone": "(917) 262-0842", "review_count": 21, "rating": 3.5}, {"businessID": "zdX9mwhoknXXYL1GCstnow", "name": "Lucky Garden", "cuisine": ["chinese"], "location": "305L Wyckoff Ave, Brooklyn, NY 11237", "zip_code": "11237", "coordinates": {"latitude": 40.7003, "longitude": -73.91221}, "phone": "(718) 418-1002", "review_count": 12, "rating": 4.5}, {"businessID": "e-6UcplEErq2Hj14-eiM6Q", "name": "China King", "cuisine": ["chinese"], "location": "1759 Lexington Ave, New York, NY 10029", "zip_code": "10029", "coordinates": {"latitude": 40.794303, "longitude": -73.944572}, "phone": "(212) 410-2838", "review_count": 32, "rating": 3.5}, {"businessID": "wo7-TKh4B37RTBjPNtkp7w", "name": "Chengdu1", "cuisine": ["szechuan", "chinese"], "location": "166 15th St, Jersey City, NJ 07310", "zip_code": "07310", "coordinates": {"latitude": 40.7323552298113, "longitude": -74.039612951068}, "phone": "(201) 459-9988", "review_count": 77, "rating": 3.5}, {"businessID": "1-o-uoVSaeUcorTYmHc6bw", "name": "Hong Kong Food Town", "cuisine": ["noodles", "dimsum", "hotdogs", "chinese"], "location": "48 W 48TH St, Ste 1, New York, NY 10036", "zip_code": "10036", "coordinates": {"latitude": 40.7579737279349, "longitude": -73.9802690723079}, "phone": "(212) 461-4381", "review_count": 33, "rating": 3.5}, {"businessID": "EM6z-NkZ-q2KPWNY7aKvNw", "name": "Woks Chinese Cuisine", "cuisine": ["chinese"], "location": "7921 37th Ave, Jackson Heights, NY 11372", "zip_code": "11372", "coordinates": {"latitude": 40.7496084, "longitude": -73.8868197}, "phone": "(718) 898-7861", "review_count": 19, "rating": 4.0}, {"businessID": "U9bU_xY11bu88lYZwnMVfQ", "name": "Broadway China Station", "cuisine": ["chinese"], "location": "3212 31st St, Astoria, NY 11106", "zip_code": "11106", "coordinates": {"latitude": 40.7616886, "longitude": -73.9258757}, "phone": "(718) 545-8888", "review_count": 35, "rating": 3.5}, {"businessID": "XwB2qg5lN1oX2_ccyO515g", "name": "The China Star", "cuisine": ["chinese"], "location": "145 1st Ave, New York, NY 10003", "zip_code": "10003", "coordinates": {"latitude": 40.728186, "longitude": -73.985212}, "phone": "(212) 777-3888", "review_count": 61, "rating": 3.0}, {"businessID": "5ccJFGa6crpptt9tW0YKAA", "name": "New Grand Buffet", "cuisine": ["chinese", "buffets"], "location": "34-45 48th St, Long Island City, NY 11101", "zip_code": "11101", "coordinates": {"latitude": 40.752193532499, "longitude": -73.9149212837219}, "phone": "(718) 278-8889", "review_count": 170, "rating": 2.0}, {"businessID": "_C2cZ2EvptUbC16kRsUzUQ", "name": "Rego Garden Restaurant", "cuisine": ["chinese"], "location": "9303 63rd Dr, Rego Park, NY 11374", "zip_code": "11374", "coordinates": {"latitude": 40.7282669, "longitude": -73.8636984}, "phone": "(718) 997-6622", "review_count": 31, "rating": 3.5}, {"businessID": "vSPKmk499CglpfJFuFvbvg", "name": "Food Station", "cuisine": ["chinese"], "location": "244 Canal St, New York, NY 10013", "zip_code": "10013", "coordinates": {"latitude": 40.71802, "longitude": -74.00038}, "phone": "(646) 609-2115", "review_count": 32, "rating": 3.5}, {"businessID": "vPbJRg5umcRMELTDsJik_A", "name": "Hong Kong Chinese Restaurant", "cuisine": ["chinese", "japanese"], "location": "174 Lexington Ave, New York, NY 10016", "zip_code": "10016", "coordinates": {"latitude": 40.7444, "longitude": -73.98146}, "phone": "(212) 689-1025", "review_count": 35, "rating": 3.0}, {"businessID": "4cP9IJekfdFmx8vpMVoY9Q", "name": "Sing Hing Chinese Restaurant", "cuisine": ["chinese"], "location": "576 Grand St, Brooklyn, NY 11211", "zip_code": "11211", "coordinates": {"latitude": 40.710937, "longitude": -73.948715}, "phone": "(718) 388-0446", "review_count": 29, "rating": 3.5}, {"businessID": "PsLtQksvoTiFkkz3b8qD6Q", "name": "Open Rice \u9e97\u666f\u6d77\u9bae\u9152\u5bb6", "cuisine": ["dimsum", "seafood", "cantonese", "chinese"], "location": "4418 8th Ave, Brooklyn, NY 11220", "zip_code": "11220", "coordinates": {"latitude": 40.6441892233397, "longitude": -74.0008395018883}, "phone": "(718) 633-6366", "review_count": 17, "rating": 4.0}, {"businessID": "vSkCDRWX6VvP4PJHHFgoDw", "name": "New King Wok Restaurant", "cuisine": ["chinese"], "location": "2025 7th Ave, New York, NY 10027", "zip_code": "10027", "coordinates": {"latitude": 40.8064728, "longitude": -73.9498444}, "phone": "(212) 222-2868", "review_count": 16, "rating": 4.0},